time,cell0,cell1,cell2,cell3,cell4,cell5,acc_x,acc_y,acc_z,roll,pitch,yaw,latitude,longitude,satellites,speed,rpm_bl,rpm_br,rpm_fl,rpm_fr,steering,throttle
0,2.749996262,3.884447054,3.056215091,3.789590406,3.222816611,2.73616338,2.233137963,3.479545815,0.209335799,4.411492276,2.577691691,-165,34,34,2,21,1697,725,1243,564,1952,1629
0.5,3.808683989,3.918726969,2.483397987,2.80203522,2.892376796,2.841565708,1.083594263,0.49084,3.175329948,3.999723101,3.426427143,95,34,34,2,19,162,2036,2039,1698,1725,1731
1,2.49774459,3.540704869,3.35248047,3.325423638,3.442489956,3.083858669,5.200717481,1.742295501,1.263995233,2.165171161,2.680094997,24,34,34,1,15,1453,1287,1453,567,1919,1053
1.5,3.050487621,3.006668551,2.488148709,2.683240001,3.001722023,3.475132841,0.514089885,4.247447742,4.549729327,3.775548581,3.205009123,64,34,34,1,45,155,358,1629,535,1014,1901
2,3.591026695,3.241658982,3.931656109,3.651461178,2.259410852,2.784819169,4.852018761,0.993535171,3.728828606,3.938329274,5.589042248,161,34,34,0,12,1331,1449,351,1846,1365,1107
2.5,3.346210709,2.991798631,2.654398088,3.717130465,3.88321744,3.44219351,1.543485738,3.954909871,3.043662869,4.902744165,4.564080585,34,34,34,2,19,1979,1084,1648,181,1342,1259
3,2.860060874,2.047841695,2.008221214,2.09979342,2.454897007,2.495044428,4.929421454,0.741988315,5.971734257,5.612224002,4.896337801,-99,34,34,0,16,1943,959,1951,2322,1550,1445
3.5,3.055717282,2.045476419,2.403707561,2.52246637,2.536041627,3.098158581,3.546786967,4.240382053,0.255235108,0.661007587,5.902065414,78,34,34,1,1,1250,2308,407,2063,1501,1568
4,3.569359812,2.892891131,3.534168751,2.081355369,2.417234437,3.946470415,1.924738544,5.30217064,5.037502467,0.602656651,1.544715809,-113,34,34,3,4,1825,2216,1549,640,1973,1464
4.5,3.052001529,2.520317785,2.748556828,3.717388745,2.605935338,2.906561438,2.968902365,5.150442069,1.422168009,5.026397871,5.556075715,-27,34,34,2,44,1948,1190,1518,102,1218,1814
5,3.139199783,3.848505023,3.97189181,2.881221709,3.864714018,2.030808722,5.0696932,5.136425807,4.1266133,2.430034097,0.282006266,-45,34,34,0,15,1870,2180,286,419,1484,1070
5.5,3.688603992,2.146179855,3.297303813,3.410067689,2.842384341,3.822270462,1.368810622,1.88719576,0.405577733,1.11772085,0.461175475,-3,34,34,0,12,1981,747,592,1535,1926,1946
6,3.562729266,2.274565646,2.963572197,2.766820603,3.285893514,2.516262282,3.723529998,3.67844201,2.825836033,1.391857945,3.933097559,-138,34,34,0,11,116,160,282,1522,1368,1167
6.5,2.894682367,2.798154168,3.372912817,3.40674303,2.339085241,3.473030493,3.732290821,4.932370361,2.696352372,0.51033105,4.65599181,27,34,34,3,8,84,1219,1324,1740,1015,1171
7,3.580761188,2.636193127,3.961818428,3.869461372,2.187830965,2.038367556,0.665177071,1.313449915,1.142871566,3.329012315,1.712296009,56,34,34,0,43,1316,1678,271,1365,1924,1789
7.5,3.750415967,3.611603991,3.252823562,3.460333251,2.400376366,3.677254621,1.416169619,2.571533793,4.427302946,5.82629745,4.746440649,46,34,34,3,26,2092,559,341,251,1010,1965
8,2.617763632,2.307900587,3.693313231,3.446602327,2.631449503,3.833878997,4.741240552,0.818105044,1.704733634,4.859910403,0.727257577,96,34,34,2,29,1100,848,2217,2210,1752,1463
8.5,2.139754254,3.687125821,3.582192829,2.060615176,3.504336671,3.533066932,0.200949825,3.947995832,2.679465863,1.742823197,5.411225489,177,34,34,0,13,1529,816,868,837,1857,1298
9,2.490983303,2.031075937,2.196318098,3.010352855,3.002871025,2.487255704,1.024131415,3.119233683,4.490945052,0.387939258,1.187528688,2,34,34,0,13,1240,379,231,1632,1655,1418
9.5,2.954756533,2.46621777,3.753695899,2.08749656,3.215147912,2.339607869,4.031936067,1.505669181,2.628837166,1.029871179,3.111899603,86,34,34,1,14,2015,1939,1638,2088,1674,1827
10,3.938085898,2.972183946,2.34651735,2.822033541,3.30239929,3.887712311,3.40006406,3.544334547,3.479819831,2.479905092,4.025291158,146,34,34,2,30,553,1267,610,842,1591,1405
10.5,3.216053089,2.309944036,2.301719933,2.780085225,3.737509368,3.960699582,5.422833406,2.513062254,2.397204632,0.32617786,0.186743738,155,34,34,1,14,242,1602,1819,1565,1437,1580
11,2.550548038,2.667921706,2.730273454,3.190505212,2.002861704,2.131332092,3.240591453,2.796274534,3.630831228,5.507212647,3.574031505,-165,34,34,0,13,1851,2388,2184,1960,1384,1793
11.5,2.483773569,3.751575865,3.488955659,3.271827764,3.684226566,2.604267679,4.633346964,4.861528742,3.396117161,4.391975487,3.719603492,104,34,34,1,7,640,709,133,1959,1860,1078
12,2.931028209,2.533226182,2.050235626,3.357820506,2.509371211,2.578700128,1.524357685,0.484210862,0.114472686,0.713467851,3.690778685,16,34,34,1,42,2106,1638,1069,27,1658,1714
12.5,2.591400975,2.912225707,2.264239847,2.140722225,2.455009612,2.148712534,3.388538196,1.828741478,0.1501314,4.43380582,0.880236714,-57,34,34,0,41,1862,2337,160,1370,1090,1070
13,3.60086329,3.541854867,2.072674617,2.500752715,2.597747593,3.268164619,0.151549925,4.423306871,4.540740755,1.304289544,1.14464171,106,34,34,1,45,1677,1635,1993,790,1258,1850
13.5,3.494153032,3.968322934,3.537991221,2.171364985,2.682810238,3.000106317,5.072026325,2.178601107,5.3143136,3.066602668,5.169227741,-158,34,34,2,41,829,1855,1391,886,1640,1791
14,3.50110575,3.658204724,2.243873999,2.209881094,2.696876824,2.524195971,2.057411207,0.598997946,4.261851839,0.8854952,2.201102908,27,34,34,3,10,1051,1129,2300,1465,1064,1708
14.5,2.744228119,3.74349036,2.242201445,3.807795035,3.166146541,3.916261409,1.927961768,2.742895709,0.213427368,2.767150199,4.66179275,-144,34,34,0,5,1976,1944,541,620,1304,1483
15,3.637539762,2.39935238,2.648556697,3.546172688,2.099542723,3.806985523,3.280420962,0.826984457,4.729023827,4.119865076,5.652534954,100,34,34,3,4,1794,935,1506,1879,1410,1529
15.5,2.576069655,2.282867331,2.205530565,3.065463156,2.321144126,2.361214227,1.180738368,4.848851219,0.297466017,4.34657875,2.147172527,-164,34,34,0,3,464,1804,1794,1110,1671,1116
16,3.540504658,2.902803866,2.279927222,3.674316389,3.842355858,3.276275482,0.616526118,5.426319704,2.356913466,3.087340802,3.017248344,40,34,34,2,15,286,155,1748,945,1883,1642
16.5,3.660609471,3.884809737,2.889360844,3.94068938,3.850251837,2.076323237,5.171951242,3.727423183,4.892330325,2.79194282,5.257322254,117,34,34,1,33,1296,515,545,600,1495,1159
17,2.068140702,3.990370927,3.215856053,3.285939003,2.776299061,2.722702432,3.040307127,1.39778236,5.789609088,3.699498773,2.884014923,146,34,34,3,38,1504,2154,1556,694,1078,1664
17.5,3.820389868,2.100695669,3.042417438,2.079250493,3.234994832,3.248005676,4.511169241,5.01472972,2.449835591,3.237750756,3.727159835,-126,34,34,0,29,152,839,2005,998,1454,1606
18,2.686716178,3.272946743,3.496610095,2.872769915,2.608158197,3.66596663,4.831911918,4.950716679,2.851262248,5.080232332,2.260856054,-164,34,34,1,16,320,413,302,1202,1920,1643
18.5,3.553439096,3.309019595,3.500250374,2.941099776,3.593739993,2.760359624,0.642359568,5.884398275,3.742765522,3.650619488,4.250461929,31,34,34,1,29,1906,2305,1471,1070,1341,1172
19,2.318566556,2.241266278,2.526162471,3.031363277,3.920325592,3.027209321,1.647997566,1.454181485,1.085286786,5.619518734,2.973799329,-64,34,34,0,3,1633,191,1330,548,1275,1169
19.5,3.612206349,3.490389581,3.676094747,3.182523756,3.800106625,3.22130471,2.80625361,0.506293041,0.185645874,4.117468655,5.708747971,-48,34,34,2,36,285,465,2011,2205,1071,1425
20,2.849761664,3.977269137,2.634529816,2.083774127,3.133998206,3.525231575,3.225052828,2.830794643,4.97240624,1.13484396,4.693652743,63,34,34,2,10,55,2117,2111,1186,1850,1184
20.5,2.722760397,3.414291394,3.844289139,3.764084186,2.464406942,3.353989415,0.983446914,2.865813181,3.16711179,5.974800939,5.921275379,118,34,34,3,7,1690,619,424,840,1140,1471
21,3.467674791,3.514135633,3.179885516,3.71219119,3.177136393,2.756802703,2.600554738,2.001949319,0.806379636,1.596703987,4.682081124,73,34,34,0,6,1048,660,365,262,1249,1521
21.5,3.268195158,2.481228526,2.009021083,3.832232177,3.985207934,3.512195017,5.475582008,1.135545728,3.9009765,5.03622328,5.618747033,-179,34,34,0,1,258,633,365,2003,1247,1902
22,3.629967909,2.685507185,2.265016567,3.366708368,2.690340054,2.216048548,0.365361204,3.457659536,1.813477704,0.903998221,3.80434837,180,34,34,1,16,824,905,193,124,1161,1560
22.5,3.9773477,3.673630122,2.873089562,3.791578595,3.080201314,3.814784187,0.029805549,3.965348444,5.471095743,1.569820027,2.332402401,-48,34,34,3,6,1930,712,136,773,1154,1413
23,2.567397762,3.040687596,3.22764848,2.513882019,2.626806224,3.489618382,3.828192179,4.393664165,0.210015478,3.993942638,4.437218518,-96,34,34,3,35,1048,1292,465,2180,1827,1241
23.5,2.591062639,3.798348616,2.326218135,2.673669354,3.756529537,2.111628262,2.277653784,4.696740067,5.207112979,5.837620373,5.607011759,137,34,34,1,39,2384,1156,1574,1076,1928,1892
24,2.54526127,2.914658751,2.944634198,2.990180456,3.782145065,2.976762464,0.576171384,5.129716883,4.095717863,1.506704377,3.075131523,59,34,34,0,42,2,116,2226,2188,1344,1401
24.5,3.212527661,2.965099463,3.483467454,2.263596144,3.076800303,3.831924089,5.008081344,1.468862837,4.744890262,0.254865971,1.07351255,-69,34,34,0,35,1953,510,2202,760,1000,1993
25,3.650393619,3.034161567,3.332331757,3.822806892,2.022134064,2.479299163,0.312551714,4.893940858,1.598125556,5.292404703,0.655661518,-46,34,34,2,6,793,680,396,163,1993,1520
25.5,2.332755602,3.924378743,2.438633151,3.810343557,2.49532587,2.071089524,1.387123323,4.523514801,2.044132804,0.311164751,0.978516399,-43,34,34,1,3,1091,822,272,178,1405,1549
26,3.05657829,3.51913706,3.07500933,3.004330642,3.502313583,2.143815643,2.993110682,2.929270773,2.814449791,3.247170177,4.959930885,-164,34,34,3,29,232,891,586,197,1451,1429
26.5,3.004951351,2.816838919,2.166243356,3.404145451,3.581005275,2.914832727,3.155427773,0.580098569,1.385465046,4.96981134,2.296776151,13,34,34,3,34,2130,367,1481,2085,1114,1120
27,2.483589562,3.298152489,3.364623951,2.482105858,2.638565228,3.288479377,4.343900705,0.311227951,5.081248581,2.262124646,2.155453492,-129,34,34,2,9,1535,626,783,547,1709,1656
27.5,2.807851032,2.894041211,3.043577316,2.408251093,2.996643405,3.305913771,2.059896297,2.518218778,0.478808695,4.618920898,4.611136626,-52,34,34,0,1,1691,2292,1869,1407,1494,1117
28,3.518938522,3.853056112,2.172227999,3.832501365,2.70897791,2.379484919,3.613924112,5.490684929,0.980678158,3.641830228,5.931884481,21,34,34,2,35,2078,407,2246,2148,1880,1287
28.5,3.413501383,3.297464065,2.945145026,2.184063079,2.890420769,3.514376196,2.156320603,5.769710191,2.106601996,0.909016142,3.626071792,-99,34,34,0,45,1436,1951,271,1335,1757,1608
29,3.304992346,3.684259888,2.224374313,3.436702022,2.338064398,2.209145585,4.6279704,5.538173641,5.978831153,0.976332821,3.340944595,69,34,34,0,2,116,1257,1297,1335,1419,1032
29.5,2.287212789,2.314656959,2.196100924,3.22669791,2.765388884,2.011624893,5.989150276,2.594333699,4.18760321,4.098993932,5.250975944,29,34,34,2,18,2184,2109,616,2236,1768,1753
30,3.721327115,2.432018838,2.291889987,3.241836816,2.598393758,2.896843828,1.873081367,2.963951639,3.640282843,3.082664714,2.426157213,-107,34,34,2,30,1313,677,1034,81,1819,1976
30.5,3.691498201,3.172098541,3.295177738,2.952388282,3.050147467,2.095645983,0.16956642,0.079611037,3.369944867,4.798557991,5.117149635,177,34,34,1,21,1302,115,2102,1091,1677,1004
31,2.574102647,2.659318065,3.302727017,2.013731167,3.984239102,2.313219202,5.449676183,5.117553756,0.351536158,0.526948259,2.261818492,82,34,34,3,15,1234,279,789,852,1619,1226
31.5,3.356068203,3.507100286,3.281811912,3.371574411,2.316600643,3.253135974,5.268212694,0.979388743,5.246649327,3.218636244,4.640464916,98,34,34,3,40,1305,2261,1265,1865,1084,1352
32,2.642970604,3.058281275,3.225565863,2.288807734,3.205996586,3.618430267,2.933649161,4.720571606,4.988419515,4.191001343,0.026563578,73,34,34,2,18,1293,1101,1474,238,1436,1440
32.5,3.273557474,2.333603407,3.402600828,3.312936854,3.275601599,2.678593325,1.607323299,5.594893042,5.477516446,4.549811624,2.630361252,37,34,34,3,36,612,38,815,1392,1908,1655
33,2.375055499,2.723313676,3.309820292,2.111947342,2.514778945,2.888894949,1.770643934,2.222854857,2.945856627,4.820568766,5.471171732,-118,34,34,3,7,736,2012,1283,340,1036,1897
33.5,3.803804988,2.219837535,2.418793816,3.973659942,2.491635281,2.610144709,1.799560576,0.50365643,2.579274815,0.386587775,5.399818533,-120,34,34,3,24,659,1951,403,1771,1088,1742
34,2.47630698,2.789279012,3.048050938,3.219976691,3.746463909,3.377745267,5.914317178,0.439022155,5.825167573,4.418049266,2.333424396,-101,34,34,1,6,1844,1791,1407,544,1582,1751
34.5,2.059624468,3.889955097,2.646250121,3.441934905,3.462342641,3.741685256,1.783418658,5.470461175,5.392662874,3.50906363,0.112768712,-105,34,34,0,21,1550,166,2114,1055,1903,1149
35,2.89526269,3.334273473,2.233485471,3.194702366,2.386526155,3.961545558,0.989643504,2.742599408,2.685398196,0.526467332,0.26840724,-49,34,34,3,2,1039,1212,943,2036,1089,1859
35.5,3.480275086,2.543982951,2.838746979,2.612037568,3.762348853,3.831646014,2.354518986,0.047516055,2.924263162,3.177272073,4.478332763,52,34,34,0,40,71,1190,2226,1528,1337,1510
36,3.115444104,3.582396986,3.036841903,3.795772249,2.012077566,2.863765838,1.212323415,5.617467464,5.778231618,0.936233675,2.147388317,-76,34,34,2,29,641,1675,472,1558,1860,1196
36.5,3.864002229,2.142942839,2.788193704,2.923575633,3.006154071,2.786630564,4.859063476,1.27430438,0.555654438,0.375961885,2.835814135,40,34,34,2,18,1171,1636,68,1388,1726,1263
37,2.871392812,3.912559692,3.632130401,3.356955114,3.406319575,2.934978654,4.873965716,1.32855228,3.95874537,0.906942222,1.637825962,-62,34,34,0,42,2171,799,688,559,1578,1772
37.5,3.437932671,3.058451979,3.557925549,3.518238002,3.016555836,3.207582739,5.21357226,4.076135343,1.595431048,5.75339266,4.199180949,16,34,34,1,11,38,1646,39,1289,1266,1554
38,3.771949869,2.234505469,2.490973841,3.698640623,3.908760287,2.148424623,3.363635878,3.505095593,2.952073401,5.093702856,5.43203208,58,34,34,0,10,886,176,2301,2070,1163,1067
38.5,2.644575935,3.343219467,3.78742556,2.841544421,3.508612288,3.182397058,3.445567979,3.013133658,3.375876097,3.119501855,5.150923653,23,34,34,0,43,1278,1716,1917,1687,1363,1470
39,3.31668592,2.11861296,2.19496159,3.988293913,2.611950804,3.537220605,3.2285912,2.846961347,1.955436539,0.018946433,0.125021723,-78,34,34,2,22,610,2088,938,1997,1297,1682
39.5,2.789979361,3.293165301,3.502576436,3.661573674,2.251651117,3.975223216,4.631513821,1.142023721,2.722386175,0.681612513,5.39306365,131,34,34,3,43,1232,231,657,584,1076,1064
40,2.241354732,2.979654246,2.800103639,3.182544676,2.653573135,3.592221702,1.63371911,5.490785901,2.931404308,3.92578944,5.079212046,85,34,34,0,26,928,1214,345,737,1973,1960
40.5,3.213880455,2.371466434,2.789659702,3.527229508,2.540449197,3.81639355,1.492951728,5.116288197,5.785327168,2.457569784,2.804412121,-180,34,34,0,27,73,1787,1767,1747,1879,1013
41,2.869519957,2.08511163,2.852799691,3.609507973,2.495910348,2.014442961,1.767530272,3.538021624,4.335494915,0.51876469,1.461979622,-137,34,34,1,29,687,371,264,196,1368,1404
41.5,3.968926016,2.785490165,2.637112268,3.985255218,3.889449049,2.162587099,2.950405017,5.442623078,2.581818413,5.682762994,4.494965311,-1,34,34,2,44,1831,86,482,440,1845,1046
42,2.701199225,3.603940462,3.132211951,3.000328116,2.848577751,3.776347761,0.444150028,2.142494225,2.376932893,5.140872551,1.213535937,16,34,34,3,36,1426,1292,351,641,1497,1419
42.5,2.665729285,3.817372735,3.189862898,2.654937744,2.10100728,2.247845038,0.661009255,4.098974721,3.54747433,0.950847408,4.077575492,-138,34,34,0,32,170,1321,1299,1756,1745,1880
43,2.458120747,3.620772159,3.873404847,3.187004465,2.023057468,3.754819133,0.436573314,0.326741618,5.67613873,4.056484117,5.191169984,-144,34,34,2,45,1743,1188,2114,1647,1795,1805
43.5,2.299923768,3.115085646,3.227462873,2.781393315,3.983352625,3.408888911,1.685367522,3.089860865,3.008624301,3.333521463,3.568599201,-146,34,34,0,25,1535,1674,440,1123,1194,1219
44,2.56456777,3.850798976,2.048017761,2.435446021,2.772661078,2.799062385,0.514177871,5.009030956,5.95493941,5.984081417,1.689573755,150,34,34,0,43,73,1991,1374,513,1891,1749
44.5,3.451503197,2.784229616,2.720811283,2.479199049,2.515491235,2.909025293,0.084042999,3.486684105,5.695157457,2.763680147,5.527393798,168,34,34,0,37,2225,1929,972,1032,1133,1427
45,3.396416531,3.647853923,3.482177645,3.109132054,3.41509955,3.026403911,0.747817362,5.737850326,2.4344219,1.955964784,1.152684303,27,34,34,1,1,861,1069,2234,1901,1010,1002
45.5,3.016850077,2.759421232,3.587836788,3.578994132,3.343764531,2.944068281,3.810163498,3.415105142,1.380767013,4.452302503,0.527854618,119,34,34,0,14,572,1658,877,2364,1653,1527
46,2.942615833,3.19898773,2.880344429,2.854741548,2.854934997,3.097451372,3.622693977,4.773030714,2.657025356,3.738016194,0.026587244,169,34,34,1,19,516,576,354,137,1028,1007
46.5,3.158508625,2.877541655,2.839267159,2.296677194,3.491659609,2.514007079,2.053862619,5.856887278,0.524513659,3.594864899,5.904371863,-107,34,34,0,29,916,443,1087,1938,1261,1796
47,2.405841238,3.166268048,3.127941044,2.18773657,2.956398115,2.893394836,0.944068753,5.251003175,5.175991731,0.588179934,3.772079951,-157,34,34,2,7,127,2238,783,2052,1993,1342
47.5,3.801581873,3.136544645,3.606482413,2.349499343,3.297859654,3.243712586,4.904605765,3.128054543,0.647969469,4.282162082,3.600816151,37,34,34,3,3,2390,1725,611,2152,1905,1069
48,2.562170386,2.3778459,3.415083006,2.479960218,3.587404544,2.855522462,2.731609785,2.410423192,0.124368434,5.063667971,4.471162914,-180,34,34,1,43,2152,1600,1767,571,1163,1216
48.5,3.868739202,3.435195946,2.913142577,2.332711528,2.957950377,2.462608726,0.193254275,5.333594289,4.499406964,0.911205843,5.168661769,-26,34,34,0,20,686,1736,1324,114,1867,1171
49,2.871175906,2.516994931,2.582552573,2.46775889,3.743216707,2.156245521,0.876425588,4.519669552,4.293793798,5.904192692,1.776062668,-5,34,34,3,42,363,944,124,2193,1282,1325
49.5,2.91750213,3.264908157,3.476890185,2.222053384,2.027862139,2.831641961,1.715363764,4.449498427,4.033304693,4.197911272,2.285094433,-33,34,34,0,31,1956,1153,1311,316,1827,1242
50,3.582965747,3.067100918,3.150378814,2.516895724,3.569908323,3.909764362,3.805621791,2.30382481,3.440801967,4.602236682,0.005199823,-166,34,34,1,7,1056,1052,1745,1087,1028,1656
50.5,3.074726427,2.109724876,2.311931889,3.350692616,2.493439489,2.337710014,5.002350376,2.488982825,0.661206292,1.3357345,3.211832246,-131,34,34,0,6,121,1464,1600,698,1196,1369
51,3.664488693,2.288047123,3.070264829,3.066116164,2.573057001,3.96709122,1.277761793,5.34175506,3.450488266,0.485707142,0.365793502,-99,34,34,2,45,291,872,2364,2344,1589,1674
51.5,3.453747457,3.641313918,2.354797778,2.36338435,2.436265166,3.599752388,1.835600013,2.737799716,3.614329025,0.455797677,1.616538513,-114,34,34,1,12,550,2288,578,1260,1317,1883
52,2.815027987,3.58034046,2.52698943,3.767026348,2.160401325,2.902666254,1.819659256,2.095174292,3.178754243,1.819780409,3.899994874,121,34,34,0,6,347,309,236,737,1177,1982
52.5,2.042889545,2.089673377,3.598530206,2.643071579,2.390693914,2.838862379,2.014278133,5.084312688,2.158318028,5.590649069,2.346677244,-6,34,34,3,31,1187,1376,2270,694,1938,1285
53,3.829730234,3.559810878,2.065641664,3.9730167,3.582519564,3.139270616,2.041684833,0.384212529,3.862981908,5.235119687,5.362581981,133,34,34,1,2,811,2155,620,2333,1783,1372
53.5,2.574857452,3.699835281,3.806405002,2.312552547,2.121583289,2.472429626,0.619588103,5.656824658,0.579921104,0.898848862,1.09130004,0,34,34,1,40,1415,1184,1257,5,1413,1601
54,2.615781372,2.594896557,3.358617262,2.275699951,2.096460492,3.603590378,5.63954654,1.077012062,2.399835524,4.834555087,1.12583838,-37,34,34,2,36,522,911,68,1466,1779,1041
54.5,2.074765663,2.332307657,2.289106755,2.687320554,2.88883732,3.624762931,3.397614765,3.641249367,5.451031324,2.931282926,5.681770774,164,34,34,0,4,410,533,25,1588,1051,1425
55,2.114017687,2.571178227,2.947553203,3.380450712,3.899428917,2.756970367,0.248820531,0.138369469,0.330765981,0.977876614,5.357040652,104,34,34,3,3,1302,1855,1842,1092,1573,1037
55.5,2.540284832,2.945785553,3.166108939,3.01920027,2.947457359,3.700218863,1.14720846,0.093721154,2.254124668,4.412267683,0.690049986,145,34,34,1,43,1331,2172,1676,1644,1249,1619
56,3.090582767,2.022460682,2.612386439,2.430147471,3.260287523,3.865633733,0.987400637,5.826143259,2.548598917,3.227869312,3.719358185,-37,34,34,3,20,7,1764,1088,525,1410,1727
56.5,2.821123635,3.028855829,3.964535699,3.613462601,2.283295254,3.003290353,0.282288266,0.842979022,2.950046289,5.835809239,0.12846697,94,34,34,0,25,96,1747,1594,1519,1062,1708
57,3.684059449,2.271198676,3.664508613,3.252963261,3.339114966,2.70460258,2.233912768,5.688645772,3.288066859,4.869180534,1.514443781,-38,34,34,0,40,1393,1794,2299,663,1152,1426
57.5,2.904354457,2.668068209,2.529212701,3.869874128,3.521131206,3.557762442,4.590901917,1.257793999,4.553592341,1.314938417,4.937704134,150,34,34,1,12,1026,381,238,808,1576,1539
58,2.869089967,2.37723279,3.810867387,2.009424847,3.216565936,3.361756494,5.93294509,4.880042416,3.54536159,3.938925337,3.39383064,-50,34,34,0,44,823,2032,1715,1944,1403,1304
58.5,3.240423435,3.83112094,2.151769753,2.696712402,3.220274324,3.23714186,5.903087224,4.911776249,3.686184522,5.520495696,1.256302338,-5,34,34,1,31,1294,323,1060,423,1375,1716
59,2.151963381,2.013024522,3.50687766,3.301907217,3.183974127,2.54350065,4.251253215,3.845683054,1.418077232,3.521057035,2.358628059,-22,34,34,2,27,815,1092,721,2272,1045,1015
59.5,2.327371616,2.198318232,2.230894561,3.91734082,3.914603851,3.549736983,0.004096597,1.861970035,5.374610923,5.930652718,0.92295031,177,34,34,2,33,1502,1672,560,1250,1898,1084
60,3.102842126,2.250074494,2.900074869,2.555183608,3.907341267,2.887521729,2.883864341,5.446408815,0.10923825,1.908418266,1.733657691,170,34,34,0,22,1028,1076,618,1388,1005,1755
60.5,3.514232208,3.076770291,3.88304134,3.009437864,3.539354423,3.464942048,0.963548918,2.712951587,4.506240435,0.998120223,0.400348318,26,34,34,1,9,1065,2226,1172,811,1974,1102
61,3.638370044,2.530589348,3.316793606,3.62761975,3.636107308,2.950416429,4.014890913,0.84970361,1.217022687,2.611163005,0.951987127,165,34,34,1,22,2155,909,1915,515,1701,1887
61.5,2.34637136,3.334033826,3.861289873,3.107933383,2.206424484,3.104284621,5.643247171,2.645135118,3.141981903,1.40460584,2.171296411,-93,34,34,0,45,108,2027,1735,734,1859,1433
62,3.544372886,3.955721203,3.928509627,3.992595798,2.09540975,3.85495424,1.684054499,5.862676563,5.068106907,0.512690065,2.645898486,-87,34,34,0,19,2274,1299,1492,1612,1085,1699
62.5,3.362864505,2.317837134,2.127406876,2.109464094,2.19999758,3.334805708,5.852727996,5.26711916,0.498258309,0.604330016,1.733124809,38,34,34,0,13,1350,1614,2283,2089,1557,1097
63,3.953981729,3.348337046,2.333651773,3.229100863,2.83917595,3.071186391,4.332504989,0.842712159,0.645507934,2.747821599,1.724875917,84,34,34,2,1,1428,611,669,1965,1088,1367
63.5,3.765145565,3.260215133,3.902386854,2.557883165,3.755473537,2.789997396,3.206014904,0.862576309,1.672285157,4.858461124,0.865312682,167,34,34,0,23,1960,1056,943,1372,1130,1532
64,3.412810938,3.253422378,2.013426422,3.288615607,3.683658583,3.678899443,1.143297394,2.854205957,3.525974505,2.927138399,3.485942837,28,34,34,1,19,1422,1228,1600,1679,1957,1369
64.5,2.395122579,2.775920982,3.591327103,3.152102899,3.954809353,2.391692844,1.833211821,0.29701414,2.459311597,1.984627931,2.085755408,132,34,34,1,24,1426,1353,1035,1917,1109,1475
65,3.294205667,3.700629427,2.337813652,3.440868638,3.012772765,2.799711048,5.890391423,3.940131205,4.730214088,4.579012957,0.984300807,-146,34,34,3,25,1699,215,1576,1460,1574,1137
65.5,2.196168002,3.925873841,3.297337797,2.797943961,2.973250188,3.45218075,5.762340775,1.628195335,1.58990683,5.550471874,5.417248562,61,34,34,1,8,971,1851,951,2114,1018,1950
66,3.010420947,2.036650751,2.497259441,3.626587373,2.432831961,2.748605048,4.702298561,0.879539707,4.939317207,3.827156177,4.121672927,15,34,34,1,24,1680,26,196,1300,1524,1188
66.5,3.430646286,3.070606483,2.793629604,2.121292862,3.776204158,2.752287986,4.456772726,1.157908481,3.760491572,5.86393541,2.691269145,-116,34,34,3,30,1930,802,89,2166,1728,1437
67,2.925457015,2.287478455,3.034360964,2.436816819,2.559275005,3.797494724,1.819807515,0.943388396,3.872649741,0.872177736,4.719214775,137,34,34,3,39,980,1058,888,189,1425,1257
67.5,3.282544077,2.399872644,2.388587531,2.964948647,3.275872029,3.929699059,2.688814949,1.966051341,0.85170592,3.591823157,4.253536671,-55,34,34,2,34,838,498,287,1812,1841,1971
68,3.186921459,3.102567812,2.553907184,3.204040882,3.294551528,2.269491467,5.435026157,2.563784206,2.863063732,0.770909107,5.078713991,89,34,34,2,15,1463,1050,38,1497,1493,1159
68.5,3.418751595,3.154321223,2.509238981,2.185875336,2.335145148,3.748627951,4.560019014,2.807246759,4.298702522,4.316315205,0.428127324,-113,34,34,3,22,2326,112,1249,1870,1933,1259
69,2.239818498,2.165609302,2.593445938,2.689884556,3.554246325,3.14131053,1.660625017,4.919944216,5.894559959,0.627487755,1.446650698,-97,34,34,0,23,2069,1103,1853,2362,1551,1971
69.5,2.451332129,2.014007141,2.975024416,3.295503687,3.584299732,3.232304881,5.095320113,2.123339308,5.031701617,4.022904984,3.749727292,-66,34,34,3,9,767,1403,738,1108,1675,1616
70,2.930442436,3.580088292,2.491183587,2.331983833,2.409552409,3.532686045,5.361385866,2.076547636,2.904104893,2.809546568,1.652258803,102,34,34,3,44,1363,123,880,450,1170,1239
70.5,3.474573333,2.060303352,3.475825622,2.432645619,3.86193372,3.654055867,5.972915092,3.237674102,4.944230281,3.02273212,2.614156854,164,34,34,2,36,1116,1541,1869,2176,1601,1004
71,2.766520908,2.934039512,2.169420113,2.18028889,2.298902369,2.492948324,1.588201406,0.951279854,1.976543935,0.268431274,4.957621396,-39,34,34,0,28,335,1260,1914,399,1864,1270
71.5,2.130128325,2.419719686,2.038403862,2.588134134,2.219743208,2.572576397,1.955166886,0.726126047,4.106219506,4.297721833,4.004359338,70,34,34,1,12,1546,483,111,2293,1214,1578
72,2.331853542,2.686690708,2.589792785,3.923293714,3.776974706,2.855970482,1.977588165,5.762864909,2.0391513,0.735780849,5.140224073,2,34,34,1,34,1544,1620,574,440,1228,1890
72.5,2.424013547,3.465606701,2.074922226,3.718874338,2.480025948,2.52318715,4.16204382,0.359112855,4.556961886,5.067550056,4.643019257,-15,34,34,1,44,801,1679,1468,1321,1164,1794
73,2.005729265,3.00964636,2.887840767,2.393274231,2.220249441,2.096015214,4.828498542,5.595285722,2.216561511,3.008361391,1.57204794,125,34,34,0,10,620,246,116,1106,1845,1039
73.5,3.938286593,2.207912241,2.040054785,3.131521874,3.537587278,3.755634033,5.949455238,5.524607362,3.127130895,2.210212082,0.396778477,-38,34,34,0,25,1729,426,507,2002,1475,1145
74,2.2043621,2.293364794,3.881652939,3.812160618,2.616923619,2.846003565,4.947010676,0.596732562,3.698720169,4.273979558,0.285722908,177,34,34,1,40,477,953,1095,394,1287,1575
74.5,2.595198499,2.974934458,2.564922994,2.322236,3.86917661,3.604349339,2.36277532,2.724679198,3.844438441,2.980620186,4.691226691,-45,34,34,2,12,228,1456,2054,583,1195,1959
75,2.323184022,3.446692588,2.622356769,3.255933132,3.056603106,2.668236973,3.679454506,4.657174302,3.713208241,2.740549623,1.638994772,52,34,34,0,3,1352,1175,533,1203,1152,1276
75.5,2.810458705,2.512776708,3.714412177,2.275094537,2.427118531,3.577879975,5.399411326,4.199174215,2.107581162,3.760080268,5.730103285,-31,34,34,0,45,380,1612,1165,1163,1158,1690
76,2.018241033,2.780763119,2.291467188,3.941977548,2.502013451,2.107172319,2.172807105,4.52815715,0.875310787,5.094215077,4.169275257,-177,34,34,2,24,1915,1148,1468,28,1654,1475
76.5,3.310951502,3.463262042,2.206303608,3.281190907,2.879006298,3.15999714,0.440839501,2.43156137,1.628380734,0.830906544,1.361126647,-42,34,34,1,29,1595,2232,470,2108,1074,1471
77,2.627714134,2.578030399,2.896903916,2.559614699,3.634468772,3.707628165,0.675805932,2.792416657,0.684057504,1.597852209,0.56393957,90,34,34,0,44,2050,1073,2064,2005,1049,1467
77.5,2.285436012,2.769632053,3.531672486,2.682765207,3.66751511,2.371518758,0.142004594,2.724477644,5.363219479,3.681869001,4.863428256,160,34,34,2,7,697,938,1398,1595,1569,1752
78,2.842315034,3.326214733,2.665826597,3.172567875,2.824580093,3.086634358,3.319852449,2.615293352,1.817322155,5.03375059,3.853042191,161,34,34,2,8,1154,1769,1862,240,1761,1530
78.5,2.648074649,2.449298006,2.597360559,3.443059693,3.053509849,2.447442146,5.965004418,0.477365587,1.048284408,3.388374284,4.756736213,-105,34,34,1,20,1457,1380,110,957,1309,1017
79,3.731314226,3.000760496,3.48509694,3.895627167,2.758196118,2.584432988,5.731073984,2.843248424,5.034132826,1.578175239,4.995614482,151,34,34,1,8,1071,1232,1257,1464,1769,1873
79.5,2.5237271,3.260101379,2.756277492,3.368613509,3.02431359,3.819410392,4.648390587,0.479250662,5.024137025,2.15329457,3.439451684,99,34,34,1,8,1458,623,1719,1497,1543,1466
80,2.933188916,2.107076606,3.675447175,3.126712441,3.02615228,2.794896451,3.784351881,4.85307831,2.496830489,2.363719592,0.568037849,77,34,34,2,22,1347,1752,2366,183,1057,1008
80.5,3.64273867,3.167312943,3.251084363,3.606413642,2.520407084,2.013793412,5.933058958,5.852001902,5.30461027,1.058987301,0.449956129,-160,34,34,1,33,2077,2001,1052,771,1280,1372
81,3.801016018,2.68159178,2.555754895,2.283321947,2.141743175,3.941570701,4.492202621,2.152349708,5.053248621,1.600197899,5.151287904,139,34,34,1,21,390,59,1785,1983,1452,1796
81.5,3.497163459,3.194388153,2.42411076,2.526017688,2.26124278,3.450333302,3.711759972,2.032453828,2.067986713,4.535770007,2.015673976,-65,34,34,3,38,837,815,573,379,1175,1434
82,2.360986613,3.896239978,2.750232513,3.564961081,3.434634786,2.373426403,4.682157028,3.934043904,2.237268132,5.919884827,1.410957296,-135,34,34,3,31,2261,66,1248,2038,1653,1467
82.5,2.449791709,3.842551887,2.18417781,2.506410587,3.965412896,3.317083519,0.042048861,3.194297389,3.894407606,2.17714912,3.7631043,-15,34,34,1,17,2224,764,176,1090,1496,1728
83,2.538334612,3.948583154,3.664032408,3.524705378,2.492110132,2.087516468,5.688867341,1.265752694,2.546458596,2.819790484,1.420704232,-47,34,34,0,20,2249,1312,572,1176,1757,1733
83.5,2.237310378,2.422451963,3.066304208,2.365715847,3.518315878,2.908079595,3.380797457,4.164175731,0.553290377,3.342911854,5.832161421,135,34,34,3,37,1810,1513,2347,476,1096,1997
84,2.785263045,3.899110271,3.240102899,2.853593993,3.015208441,2.100201004,3.828070015,2.968153148,4.598945283,4.843514997,4.457300585,-158,34,34,3,9,1894,1141,1989,1833,1912,1228
84.5,2.801055562,2.837760542,2.313915397,3.871775767,3.670826254,2.367901808,0.766705244,0.541891535,1.076626126,4.233767677,1.62459797,97,34,34,1,40,411,244,956,691,1852,1754
85,3.624021514,2.920640722,3.919757352,3.282409605,3.546315912,2.325901652,2.953223231,5.958934763,5.66039991,4.478425557,1.488510031,-104,34,34,2,17,596,845,105,1722,1469,1469
85.5,2.10902878,2.597863299,2.327553685,3.285811185,2.006677792,2.554948,3.003308077,5.624527359,2.2860188,1.470812924,4.10705537,161,34,34,0,8,1360,863,1943,6,1315,1794
86,3.237255407,2.71687396,3.610599206,3.13536314,3.712454091,2.748133865,2.249033192,4.202198111,1.319498178,4.427780923,1.393528751,-82,34,34,3,23,1637,145,2022,78,1039,1299
86.5,3.191852273,3.251157857,3.270620121,3.533976654,3.886696381,2.554712804,5.52453144,4.821868078,3.837497382,3.888522126,5.750372148,-104,34,34,0,32,2050,1047,1567,1274,1322,1321
87,2.903677414,3.642349213,2.455439507,2.469391346,3.095027044,2.371185778,3.521335177,3.856827118,0.794856761,3.865424707,1.931709587,-137,34,34,0,16,2387,549,989,1999,1364,1645
87.5,2.371459875,2.063944406,2.441182938,2.835906313,2.053710586,3.002503158,1.850853894,0.604359575,5.744308637,4.183177841,5.573131434,-22,34,34,0,2,143,1157,878,2021,1684,1521
88,2.050408529,3.183863217,2.71415206,3.621181333,2.876428311,2.007822333,1.78343389,2.179304753,4.537894502,5.674284669,4.709260293,-9,34,34,2,40,2361,1744,1260,1841,1962,1427
88.5,2.49820717,3.50526501,3.405806751,3.934352003,2.790597087,3.617637679,2.346636181,1.007321161,0.400957821,0.101570573,5.21302855,173,34,34,2,31,2329,16,2239,1557,1167,1339
89,2.504507152,3.686621288,3.523218843,2.489700648,3.904500163,3.867823484,5.863177979,4.245529697,1.855076326,5.785041501,0.740348704,43,34,34,0,16,2069,1899,414,2043,1434,1881
89.5,3.699455724,2.22044601,2.061257529,3.343024483,3.734583132,3.256927109,5.302666495,0.516935825,5.527056743,1.483562237,5.578037389,-94,34,34,1,30,2038,1144,1983,2341,1469,1670
90,3.863521883,3.406967465,2.91973335,3.396391771,2.441140654,2.935690583,1.823529848,2.820597721,0.681986692,4.81002853,2.098854791,-178,34,34,0,9,1211,2192,1435,508,1099,1616
90.5,3.828125588,3.304590999,2.116676589,3.437754536,3.190703407,3.343943249,3.281945731,3.976574657,1.185275445,0.006194554,0.67381586,113,34,34,2,2,1440,579,619,1294,1982,1430
91,2.141748442,3.017846955,2.258082577,2.227443597,2.525513492,3.606365921,0.096570798,4.542835099,5.216594714,2.355288294,2.084422398,18,34,34,3,42,877,1391,2227,251,1815,1415
91.5,3.798651412,3.584076374,3.059667763,2.628373237,3.185581496,3.694330657,2.821183141,3.62262326,5.323525891,4.689310293,4.247105585,75,34,34,3,38,1600,752,861,310,1241,1155
92,2.211948206,3.636513497,3.190883885,3.129423254,3.42357089,2.269770981,4.151053968,1.305050928,2.694213974,1.530597211,5.63702785,3,34,34,2,2,2057,2387,2165,352,1882,1555
92.5,3.863719799,2.245654636,2.445556824,2.59748983,2.316568009,3.061730008,0.580741966,1.969487147,1.446646761,5.944320409,1.452221888,-156,34,34,1,27,1509,1356,1395,1039,1638,1773
93,3.364912259,2.651621261,2.864092112,2.919268294,2.731648743,3.780203172,5.024205067,1.786220468,3.930228626,1.381108111,2.052720154,-68,34,34,0,17,2151,1729,1029,158,1985,1520
93.5,3.644487992,2.954522069,2.853147612,3.59943455,2.340182703,3.717196791,5.920678749,2.69457705,4.499213156,1.666511061,5.847112608,57,34,34,3,43,521,1592,568,1894,1402,1108
94,2.26982315,2.151660374,3.801047929,3.273009572,3.519013376,2.456954298,5.336075204,3.833672432,0.645964459,3.365491818,4.501246059,-163,34,34,3,17,32,927,2332,2152,1941,1071
94.5,2.036624546,2.923250126,3.050804333,2.694814728,2.282752334,3.395054721,4.396584088,0.655989502,3.912782154,4.757265185,3.066514224,-43,34,34,3,9,756,1550,1142,250,1164,1120
95,2.313390018,3.559303304,2.286729856,3.562869366,2.927356375,2.810201818,1.416438641,3.394535253,2.218334084,5.149040763,2.121550148,-86,34,34,2,34,418,2183,53,1782,1490,1115
95.5,2.675316171,3.858546125,3.492008372,2.840338296,3.083224871,2.093410693,2.010306497,5.215445233,4.427829598,1.00184198,4.119806582,-67,34,34,1,31,60,2316,140,1841,1278,1132
96,2.009414572,2.299057381,2.948833882,3.099861732,2.785858049,3.0254302,5.539037701,1.797270068,0.612899455,5.205568795,1.542507347,0,34,34,0,4,5,596,1880,1733,1422,1874
96.5,2.42346486,3.907233089,3.350696168,2.396086756,2.534602002,2.754541333,1.351663235,0.520836838,4.141715416,3.23565289,2.704618145,143,34,34,0,37,1726,1400,959,1,1450,1590
97,3.688543835,3.778936328,3.601576719,3.268628553,2.639177061,2.133624937,5.50690193,5.451035288,1.8410776,5.082060359,5.692013661,-168,34,34,2,32,106,1172,1586,462,1992,1169
97.5,2.79991977,2.150542051,3.809853529,2.851570727,2.726845428,2.881809455,1.481594504,0.271556896,5.726205375,2.392111243,0.465105591,-179,34,34,0,1,82,1811,1878,2054,1970,1912
98,2.048524972,3.06168201,2.805082495,3.226858721,2.462922762,2.591292184,3.51625518,3.273243522,5.438042797,1.091991169,2.346532188,-63,34,34,2,45,2293,1289,1884,774,1446,1902
98.5,2.997521601,2.977930675,2.027655826,3.255964034,2.824506622,2.207333636,4.322485741,1.88914058,4.873079157,1.938749552,1.471435027,143,34,34,0,24,2134,1413,153,1277,1784,1182
99,2.474571966,3.055489628,2.035641976,3.899184901,2.293425497,3.939931768,1.630092544,5.202386343,1.920255556,2.403793989,5.554196029,-85,34,34,3,45,1575,2037,1744,1614,1788,1120
99.5,3.033997281,3.163958111,2.204050225,2.879768269,3.91043272,2.291001028,2.724804591,1.704465343,2.21304964,2.070108938,3.614586759,174,34,34,0,5,2370,1917,1723,1403,1068,1423
100,3.513560393,2.03828598,3.005987546,2.354818893,3.350570768,3.958532875,2.150133202,4.229784881,5.811451905,2.5805914,2.546704897,-11,34,34,1,1,662,1362,1990,964,1566,1819
100.5,2.583033507,2.704456478,3.158708254,3.21501504,3.335476272,3.981514136,1.878240036,0.055574552,1.489552536,1.023304177,1.51733154,49,34,34,1,30,567,1908,676,2246,1640,1734
101,3.801960017,2.582332525,3.746777547,3.751819059,2.87682704,3.844692113,2.344233062,2.618193196,5.200983631,3.044056645,4.67960465,-4,34,34,0,16,1279,807,1500,2054,1726,1185
101.5,2.27748003,2.296516973,3.128601098,3.642423201,3.52428451,3.084588639,4.52293982,3.078596713,2.460836856,2.696827609,3.569362694,-92,34,34,3,15,1301,987,162,2134,1720,1195
102,3.294114743,2.227960155,2.20306311,2.823213331,2.52275352,3.400594626,0.459706542,4.243885513,2.909274241,4.709593306,2.928038501,9,34,34,2,44,878,1315,1713,951,1170,1542
102.5,2.729763492,2.28147442,2.124222056,3.204277299,2.473669669,3.691444854,4.212363636,2.008538407,1.168573698,1.672747212,4.872866012,84,34,34,0,26,1880,880,731,927,1861,1376
103,3.244896514,2.431424714,3.948771663,2.006999456,3.47989052,3.206511151,4.818973278,1.945601828,4.338862221,1.794390702,5.538432611,38,34,34,0,1,425,1253,2029,1561,1449,1089
103.5,3.146606981,2.044262839,2.057791204,3.001899362,3.277303687,3.321374481,5.521178955,2.864296783,1.609542242,1.978588899,4.68589746,180,34,34,0,5,282,170,568,1451,1822,1220
104,2.740636306,2.553315771,2.07500278,3.741907967,2.059756194,3.363126687,5.484415091,4.006148542,5.846683163,0.670221664,4.123185304,118,34,34,2,0,279,115,2183,1446,1437,1113
104.5,2.623405645,2.748641562,2.363851252,2.306633022,2.206746388,2.47324315,2.241753207,1.737584987,4.117086509,2.840468066,4.831295369,3,34,34,0,17,892,1411,2227,1482,1962,1513
105,2.902040604,3.892159542,3.266557984,3.978594675,3.155824896,3.329985836,0.873567901,2.019837516,0.42366659,0.884727729,0.435549042,54,34,34,3,42,1321,50,1770,1014,1594,1156
105.5,3.677588635,3.048410629,3.037162492,2.069605906,3.152983335,3.73847715,1.457653631,2.090765959,1.098255725,3.716439602,1.254038548,165,34,34,2,19,831,1171,1500,1492,1564,1646
106,3.480182793,2.383202694,3.702313903,2.33524723,3.901984345,2.949706784,1.992870784,4.50674283,5.385689692,3.318605049,4.954644144,114,34,34,2,12,884,812,278,355,1708,1134
106.5,3.534485513,3.006088265,3.188840432,2.369009057,3.438227496,3.157972705,5.896592781,5.657265715,5.906918125,1.211593681,4.357741252,-147,34,34,1,10,2092,2252,230,813,1542,1693
107,3.762830554,3.444887001,2.453721501,2.251357159,3.60409791,2.157794916,2.164543013,1.547124645,3.99219982,2.809072829,2.595242523,61,34,34,1,41,1873,1829,1922,1538,1140,1159
107.5,2.386652388,3.653404343,2.519817793,2.675677088,2.089788275,3.51046912,5.154278558,1.333966055,1.69607141,4.887126994,0.832873289,-129,34,34,0,7,138,289,315,1877,1483,1683
108,3.341832851,3.959790086,3.031683726,3.543008889,2.500974092,2.119353826,1.429072783,0.573727613,0.704751364,0.372854519,0.508635804,-129,34,34,1,44,2177,993,450,1929,1188,1133
108.5,3.023358166,3.937946226,3.801086306,3.84265686,3.585524608,3.683267283,3.223405883,4.325817524,0.302623626,2.703487768,2.732817662,-6,34,34,0,17,1679,839,2111,1024,1446,1332
109,2.346038484,2.020895396,3.305097851,2.252642821,3.583494325,3.619523269,1.520470858,1.458857379,1.893909867,2.246082565,5.619029023,-6,34,34,1,18,2070,577,633,824,1339,1931
109.5,2.076005511,3.412846258,2.445775538,3.390876338,3.441593623,3.836954798,2.900742166,3.412996247,0.403931677,4.144390441,1.430766354,75,34,34,0,4,1001,1422,2006,1989,1507,1454
110,2.234969493,3.68098181,2.000951594,3.784127571,3.614991321,2.03899465,1.690600266,4.288944178,5.510433896,1.404392984,4.514814787,102,34,34,2,39,1488,118,747,78,1825,1606
110.5,3.321053825,2.760190377,2.441927972,3.746883642,3.582745057,2.014860474,5.484628878,3.68193411,2.522580444,3.236303,5.053455788,-48,34,34,1,33,1600,1866,129,2300,1159,1316
111,3.556468356,2.569145984,2.720452129,3.994140515,3.248204621,2.888573539,1.573181233,5.686519452,0.441829207,1.724685915,3.974730666,102,34,34,2,21,1926,1012,393,47,1055,1698
111.5,3.496764119,2.98719755,2.959122004,2.505752832,2.997515741,2.027870707,4.082194516,2.356969942,0.941207471,4.362983003,1.852180998,-72,34,34,1,15,520,1471,308,1060,1620,1397
112,3.910859878,2.497272562,2.05845967,2.303389494,2.790139116,3.618468155,1.759356249,4.834242397,4.604853568,3.928895606,1.579444569,87,34,34,2,38,2283,1644,2229,213,1274,1651
112.5,3.088546644,2.991116538,2.441746463,3.645355934,2.026927333,3.375673791,0.571858261,3.660652982,4.988735743,2.600198896,0.201540984,-148,34,34,1,2,2064,1697,1728,1467,1398,1218
113,2.664181014,2.716347921,3.710672877,3.182089275,3.098288088,3.926850743,3.432184442,5.797734092,2.266778291,4.429847345,2.425937044,34,34,34,1,17,2319,575,2201,1633,1845,1581
113.5,2.017728587,3.156388648,2.828832856,2.857115126,3.469776778,3.726940121,0.297664986,1.323175484,0.099423248,4.83374623,3.188910462,-81,34,34,1,28,1369,2254,2098,1116,1764,1503
114,3.184984581,3.700611351,3.353571791,3.564142438,3.048689492,3.765966052,0.167583853,5.284599027,3.604177948,0.826562144,3.050970827,-158,34,34,0,17,1940,1592,831,58,1716,1815
114.5,3.73005106,3.265072247,3.853612546,3.183615707,2.558947335,2.770007749,5.104976422,4.495590133,2.566842296,5.131990596,4.922959701,166,34,34,2,26,765,2222,1489,156,1485,1149
115,2.07613604,2.153500425,2.503453153,2.046428761,3.687151176,2.802555713,4.854103177,3.724481829,2.686833501,4.026360204,5.960937305,49,34,34,1,36,441,1169,2113,1607,1785,1583
115.5,2.367802148,2.807196225,3.766563806,3.240494792,2.063056499,3.966592157,1.796945098,3.479717212,2.028250884,5.626131937,4.905296258,80,34,34,1,8,225,120,2157,1038,1036,1743
116,3.401891811,2.083027254,2.924223264,3.238332966,3.912075404,3.17510814,4.363825033,4.262029437,4.570905381,0.522799626,0.644926689,41,34,34,3,10,1037,660,1917,327,1917,1758
116.5,3.60089945,2.425037013,3.521433589,2.563963056,3.361114171,2.63661,2.075147632,0.274567318,5.663843539,2.439002451,1.69637465,-71,34,34,0,22,787,718,1052,2335,1194,1856
117,3.701817487,2.199449776,2.19898504,2.377576862,3.075859592,2.382846975,2.673924724,2.8927007,5.646350609,5.9176184,2.658486559,160,34,34,0,7,119,2255,1111,1177,1770,1355
117.5,2.345120931,3.529896882,3.729097237,3.741622017,2.927097241,3.778818092,3.427581202,2.64735908,1.504913172,3.942602646,2.379938734,96,34,34,0,16,1481,317,1672,628,1579,1622
118,2.241889489,2.312234672,2.534778195,2.745941464,2.478380929,2.26675043,2.863967446,5.878491215,0.839406875,4.369781939,2.085730055,81,34,34,3,44,994,1330,1246,714,1947,1048
118.5,2.056340087,2.700810192,2.724784863,3.533086767,2.368935488,2.420382429,4.150282363,4.579977305,2.274692044,3.398506207,4.635551555,139,34,34,2,30,8,431,506,376,1979,1303
119,3.826867249,2.803973662,2.233936048,3.64080481,3.978663142,3.932827606,2.917590736,0.000772106,0.538370257,2.597014346,4.983722739,-13,34,34,3,34,1419,347,2367,1684,1596,1080
119.5,3.479290532,3.724751432,2.93044905,2.532379335,2.70900576,2.343583688,1.533920701,5.065552566,3.717409622,1.490288076,0.444086985,26,34,34,3,32,1132,1821,186,1818,1290,1879
120,2.28198085,3.519045192,3.820477075,3.890903614,2.485738903,3.378249068,5.094393623,5.248963484,3.101662891,2.326479308,1.921580079,-27,34,34,0,43,2004,2319,1564,593,1741,1087
120.5,2.423441516,2.00201533,2.130344976,3.105375317,3.815136363,2.371312013,4.73144253,5.404802443,2.931037935,5.759155894,4.07704914,-169,34,34,1,0,2400,1149,1686,1920,1105,1025
121,3.593433555,2.834371818,3.180269379,2.995780308,3.1291339,2.739981741,5.864008244,5.725505552,4.890452406,5.855340191,5.778301209,47,34,34,0,3,372,1665,1936,286,1464,1005
121.5,3.161839407,2.768318523,2.468350099,3.48428626,3.610236785,3.114812586,4.280140099,4.578504089,1.260022962,1.443239445,1.591101484,-96,34,34,3,16,1400,882,2143,1454,1038,1235
122,2.5547817,2.259517271,2.988380398,3.751556229,3.044975086,2.513561896,4.616542145,4.852785322,5.56480781,5.723454701,1.021200172,178,34,34,0,45,1960,1573,1928,702,1768,1366
122.5,2.273123789,2.32004435,3.081702809,2.242534493,3.663700654,3.75290019,2.074289778,1.586045346,0.522445325,5.152117728,5.364902523,-6,34,34,1,16,2199,1804,70,1814,1078,1008
123,3.254085041,3.066598793,3.042298697,2.823452793,3.368334603,2.096080466,2.164815099,3.205281607,2.309932941,5.258926606,0.930571277,-176,34,34,1,3,1619,578,1082,1271,1668,1714
123.5,2.479596711,2.492423525,3.882331422,2.665655307,3.180440129,3.903962466,1.837263538,3.701535523,1.930199821,0.40675954,2.359073242,153,34,34,1,8,1134,1572,197,1251,1342,1260
124,2.714801401,2.968110093,2.497001699,2.65240305,3.623934788,2.819673814,5.330753481,2.536733529,5.330344121,2.025566526,0.124717271,138,34,34,1,6,2095,171,993,1959,1656,1629
124.5,2.223967858,3.147468572,2.487200658,2.188108383,3.514305417,2.476610099,0.949933735,0.181470417,0.263127093,5.690116642,2.229955417,93,34,34,0,42,444,1319,73,1788,1473,1981
125,2.724377043,3.867806862,2.099579496,2.778074245,2.793091706,2.649247166,0.6212627,5.006678369,0.845162678,0.091065337,1.753897086,-163,34,34,1,23,328,792,1697,68,1754,1822
125.5,2.866915588,2.391753323,3.871575117,3.681170539,2.492437549,3.371810053,0.963304046,0.366068056,4.302937358,2.414977857,0.887444894,48,34,34,0,40,939,285,1177,1498,1360,1640
126,3.243598073,2.357951681,2.356217812,2.357296573,2.578128987,3.129061021,4.715823739,4.980985519,1.565646245,4.689452927,1.168463519,95,34,34,2,31,449,2105,1294,753,1040,1941
126.5,2.992610727,3.644035135,3.901794351,2.117874457,2.76285653,3.079026537,1.361063695,2.381765236,0.330805264,5.541117379,0.660991345,-110,34,34,0,8,688,481,1721,615,1502,1775
127,2.410660253,3.621316184,2.838185206,2.675016192,3.157365184,2.146996425,5.379225904,4.326989062,1.561808721,3.453862521,0.085498201,-147,34,34,2,42,1453,1476,2216,1491,1606,1112
127.5,2.54752319,3.371287359,3.905336426,3.384788491,3.234415285,3.935080355,3.49669849,3.003374821,5.094901877,0.067168718,5.367223659,84,34,34,3,24,1305,685,345,1086,1155,1456
128,3.985336741,2.11385428,2.492060019,2.669891327,3.259247178,3.077993611,3.267792415,2.432969457,2.037119895,2.214480289,5.083145547,-8,34,34,2,14,1880,588,2080,2048,1200,1872
128.5,2.99522439,2.719826481,2.195749605,2.075591242,2.693940152,2.092778731,0.231481395,1.713105236,3.364535308,0.555471211,3.533962956,65,34,34,0,34,54,1165,1758,1422,1452,1837
129,2.419797872,3.917718981,2.072080903,3.097414019,2.942254935,2.052100519,2.295171432,2.091608266,4.986397365,1.689556022,2.750204063,24,34,34,3,43,995,1966,669,421,1563,1795
129.5,2.976402655,2.685650132,2.66893583,2.583962611,3.17015343,3.821468773,2.723018384,5.259232386,4.378134344,0.793566682,2.586342611,-95,34,34,2,26,1434,2135,835,1129,1099,1280
130,2.150650574,2.566158017,3.357431538,3.265153461,2.35180764,2.919932811,4.462178335,1.158680488,2.392718254,2.03737414,3.878359649,81,34,34,0,7,975,189,1152,85,1145,1960
130.5,3.561916263,3.757064564,2.479130257,3.181926703,3.387874057,2.842501882,2.142138242,3.96250683,0.003600469,3.494328212,1.593644038,22,34,34,2,22,282,153,1629,1699,1100,1069
131,3.748796924,3.363304609,3.494293072,3.969209842,3.262165863,3.519998994,0.57694504,0.412844366,4.416830392,4.292266627,4.647440949,-15,34,34,2,0,1741,580,1660,2204,1075,1192
131.5,2.019796529,2.962227249,2.446701237,3.455612813,3.59069866,2.908843213,1.822984269,1.604478966,1.936444053,3.054765538,4.62707613,-89,34,34,1,37,1955,1957,1342,526,1110,1449
132,3.867615708,2.187681532,3.400901161,3.792178995,2.971453088,2.42136974,1.218760007,4.433570796,3.406198184,0.027391392,2.639888288,84,34,34,2,5,1274,2371,1354,1187,1995,1865
132.5,2.652575083,3.183714746,2.775971066,3.769353699,3.854534039,3.132757127,1.354404277,0.476349545,1.152429922,0.271067704,3.10007331,106,34,34,3,31,286,1754,740,2312,1153,1295
133,2.74658767,3.233169082,3.687124636,3.2272965,2.649776714,2.649456046,1.879581682,4.712749679,3.461630181,2.859353603,0.695805563,35,34,34,1,27,1271,2269,517,301,1896,1086
133.5,3.736460898,2.79404662,2.758647072,3.763281345,2.305465559,2.196339653,2.772188368,4.374235796,2.64944029,3.324231606,5.064011373,-40,34,34,2,8,1249,1102,971,958,1240,1292
134,2.890302675,3.840555714,2.595383763,2.705842915,2.308181964,2.615078083,0.825541999,2.647439141,2.202608246,1.473571626,4.368009162,51,34,34,1,44,947,1266,319,855,1850,1976
134.5,3.221931141,2.424558244,3.757719575,3.299605659,2.452241337,3.191479454,1.564519322,1.824129427,3.086369679,1.884905377,2.591469011,177,34,34,3,43,800,354,1263,2193,1602,1897
135,2.345045271,3.234427183,3.070511699,2.678812099,2.655831191,3.44450384,0.133212859,1.890652505,1.046397683,5.774569947,4.392509841,96,34,34,1,38,1795,523,1169,1058,1836,1977
135.5,3.586519909,3.683027681,2.031099657,2.19833327,3.609659584,3.755571762,4.475478088,1.911852622,2.925299526,3.920002066,2.401870948,-161,34,34,1,13,1800,1765,2001,462,1819,1606
136,2.443514155,2.953214856,3.059239581,2.803183332,2.540175359,3.647006673,5.648944644,5.792823712,5.947063537,0.312283628,0.424138264,173,34,34,1,6,2196,1328,85,862,1929,1755
136.5,2.824371078,2.238722477,3.812771461,2.55019172,2.002500303,2.695602518,5.506034541,1.76649928,2.897970553,4.877892839,0.132744448,-24,34,34,3,9,915,1414,311,1252,1498,1909
137,3.170463228,3.090146211,2.774408194,3.057308785,2.406482574,2.448919364,5.956412689,5.420739672,3.011238448,2.647063576,4.286102939,148,34,34,0,21,770,2221,1455,123,1440,1957
137.5,2.71933511,3.75689949,2.351496094,2.217860221,2.686925197,2.60335955,3.47960707,3.130984209,5.864921315,0.628842222,1.689656049,-64,34,34,0,30,938,770,1328,426,1118,1099
138,2.940002539,2.653183382,3.613179471,3.948112188,2.385679751,2.779938294,1.53728417,2.327557434,0.377739334,0.272909549,4.707316173,-46,34,34,3,43,1135,1573,2295,1247,1962,1647
138.5,2.713264441,2.471008991,3.257871437,3.002380477,3.1224351,3.895170407,1.594972895,4.305501894,1.393385582,2.271618839,2.126228297,-67,34,34,3,18,202,1293,180,447,1600,1344
139,3.309108347,2.462741975,2.531537238,3.600946636,3.777567778,2.543621921,4.627355975,0.577815559,5.224002842,3.326791802,0.86563413,-29,34,34,3,5,384,1057,478,25,1041,1417
139.5,2.898224788,2.675977289,2.00913156,3.437846909,2.354188139,2.830306019,4.566441433,1.596166568,2.314126722,0.050580866,2.830361415,-176,34,34,2,0,1823,612,1576,1975,1303,1345
140,2.66832796,3.562233765,3.975399375,3.144267855,2.421113391,3.620140586,4.687337589,4.875138366,5.839499836,3.272371209,4.202095863,44,34,34,1,31,51,1333,460,2246,1531,1905
140.5,3.211392072,2.397675603,2.815690537,2.813487199,2.68136864,3.76417118,4.485976436,3.759412218,1.521022798,3.239046232,3.029071072,-150,34,34,3,42,239,542,835,1479,1863,1544
141,3.110919498,2.15148918,3.143131331,2.7611904,2.138953671,3.602506823,5.897741791,4.110009847,2.126515783,4.168048997,1.85737222,-138,34,34,2,44,487,1915,2081,2155,1075,1303
141.5,2.240918613,3.774823727,2.834128646,3.943255912,3.094858755,3.714372703,1.743725967,5.884334472,3.179551282,3.399641682,1.076121627,96,34,34,3,6,821,1134,456,486,1402,1447
142,2.2582773,2.910097998,3.515209783,2.258814597,2.637118735,3.389190353,1.475302626,4.147339141,4.743886615,1.933437221,4.286216659,-170,34,34,1,34,2251,868,1525,1959,1196,1867
142.5,2.13434298,2.016405866,2.955036871,3.777475496,2.298053892,2.187360871,4.033789901,3.089470966,4.051965383,2.604331241,2.108381138,-73,34,34,2,30,1383,2062,2247,1156,1212,1714
143,3.188527006,2.898593172,2.495508856,2.229147261,3.072405047,3.930463254,3.839952567,5.397545968,4.143170192,0.152820041,3.594218609,-139,34,34,3,12,2284,1555,1519,2019,1468,1683
143.5,2.369609137,3.668868067,3.649302418,3.337593637,3.576484579,2.179565495,4.286880399,4.982283789,5.275067983,3.553590815,5.346673738,155,34,34,3,36,505,932,2218,932,1322,1747
144,2.703508505,2.999431791,2.161324683,2.214433991,2.101559762,2.64690065,0.683128241,2.273490794,5.285396226,1.077892846,4.249613746,-65,34,34,3,13,896,1204,1687,162,1133,1071
144.5,3.061043909,2.991382102,3.882718738,2.7364338,2.929435028,3.33957667,1.860432815,3.427078249,3.418196936,0.263544224,4.953292959,-137,34,34,2,16,226,1581,526,603,1368,1421
145,3.323542372,2.091676898,2.248739171,2.278924983,3.669584376,3.850153935,1.376971474,4.985804931,0.342987373,3.024104804,4.399937885,-73,34,34,2,35,1864,687,1476,378,1512,1757
145.5,2.182014285,2.626389113,2.861176137,2.540489588,2.645554824,3.426336766,2.701656048,2.818101604,4.139987353,3.909891506,1.937225128,-142,34,34,3,21,1356,871,1617,1382,1238,1974
146,3.569344706,3.155375021,3.33086176,2.103914715,2.658521494,3.080094365,2.398678713,4.061698609,0.266475998,5.422119874,1.712012708,59,34,34,3,37,298,454,399,1130,1261,1049
146.5,2.799426093,3.033281232,3.65077436,2.707175289,2.285413515,2.068988557,0.363079533,0.738321478,2.008100565,1.171891194,3.500464335,92,34,34,1,45,2392,795,978,213,1091,1810
147,2.557168727,2.79677293,2.760239527,2.16829305,3.330795238,2.026192883,4.207720606,4.539609541,1.464160565,0.85778775,5.80243934,-26,34,34,3,25,427,479,1088,1747,1197,1257
147.5,2.870435789,3.54645433,3.34095241,2.79581137,3.618953195,2.346208319,0.795046027,3.813101311,1.718777926,3.729026236,4.218711604,-12,34,34,0,43,2229,280,225,517,1603,1597
148,2.089413316,3.620514563,2.329108733,3.793547242,3.745558702,3.041343208,0.727321655,3.132931794,2.347690555,3.156815567,0.03916838,-162,34,34,2,35,742,1341,1562,1988,1905,1388
148.5,3.763936756,3.329221418,3.056657284,2.248864237,2.412654662,3.45077969,4.092903922,3.018360231,2.936562644,4.51563358,1.507567859,-160,34,34,3,22,2003,1986,2202,558,1004,1727
149,3.717455485,2.115803588,3.35270488,3.337801898,2.778127027,2.828816608,1.238312154,4.843407296,5.773624422,4.886743715,4.030585907,-8,34,34,1,6,612,247,296,268,1642,1352
149.5,3.118319166,3.905723488,3.415486226,2.940921064,2.447623927,2.306528076,5.010058186,2.274649713,4.605874086,1.265425809,0.847786798,77,34,34,1,18,1405,90,910,1577,1645,1526
150,3.968816512,2.762631287,2.193535869,3.63306115,3.65951923,3.087727067,4.20736486,0.73596031,3.528809882,5.246813726,2.704942212,-59,34,34,0,23,465,1956,133,2039,1554,1155
150.5,2.097763725,3.649954926,2.758203071,2.791566657,2.919273957,3.852707938,4.157942711,2.128098541,0.585353815,4.313554585,1.098377961,57,34,34,2,31,344,449,2326,261,1451,1733
151,2.669530596,2.265005652,2.168014474,2.565946222,2.223331734,2.645171036,4.721926278,2.277019127,4.209678036,2.774001159,1.631574498,27,34,34,0,36,1592,2231,1382,37,1270,1748
151.5,2.502189363,3.751241986,2.34398633,3.90021167,2.400905803,3.154780775,0.03002301,0.480888995,1.188084711,0.403872254,4.407701758,171,34,34,0,22,2115,305,1601,1889,1651,1931
152,3.532081551,3.280968263,3.640151435,3.86494622,3.931150096,3.149823178,2.595615782,3.923620838,1.484088892,4.92284801,0.367407482,55,34,34,2,24,1267,2341,1785,52,1399,1227
152.5,3.528629335,2.060459486,3.470569186,2.197385567,3.316248107,3.580335116,5.171062352,5.362137948,0.292877786,0.308304877,1.666612631,22,34,34,3,32,2140,661,2393,2240,1411,1266
153,2.275540317,2.246794731,2.0424217,2.950781503,2.67241125,2.006362355,5.805429039,5.25364655,4.71087988,5.759818028,3.806935769,-15,34,34,3,21,419,1887,1891,1313,1533,1188
153.5,3.021124844,3.866330055,2.642661396,3.043172132,2.748271912,3.472565713,3.091796242,3.62699659,1.167230798,4.81454766,1.949564954,8,34,34,3,6,2080,1977,1969,707,1158,1507
154,3.709413504,3.090079786,2.823838486,2.711577035,3.455979839,3.506262379,4.741463436,0.085863765,1.066106921,2.344986054,0.975938903,93,34,34,3,2,207,1751,1785,1851,1042,1543
154.5,2.342856117,3.623936192,2.327732822,3.926162805,2.737109803,3.981182824,2.613321455,3.131139046,2.663279326,2.965228963,4.131795152,135,34,34,1,11,6,1663,9,2277,1813,1757
155,2.959516883,3.897623404,2.262545298,2.544373617,2.801902281,3.443241205,1.319516364,2.50580768,1.473447131,5.38758355,0.658979004,140,34,34,2,45,837,2220,2189,474,1826,1718
155.5,2.971683456,3.074075144,3.769390225,2.302969207,3.986268573,3.438372404,4.789537328,1.532208725,2.899749252,1.713671593,5.701441322,-110,34,34,2,19,1512,2235,1765,2083,1755,1765
156,2.081580044,3.726337137,3.649073525,3.999199035,3.444204649,2.912629858,3.084373897,1.050594042,0.370759758,4.710900055,2.354258101,48,34,34,1,23,407,2195,1271,1982,1227,1190
156.5,2.411377797,3.234337777,3.158278779,2.811738967,2.874547367,2.621547906,0.211092095,1.841355976,2.719131966,5.489641632,1.100623694,-125,34,34,1,15,1236,1820,331,192,1560,1086
157,2.212367975,3.498519553,2.985629008,2.478576016,2.287702548,3.601957035,4.394063874,0.229386968,1.453744627,1.70335007,1.974979201,124,34,34,3,28,1010,144,781,396,1116,1421
157.5,2.451210503,3.29137682,3.56623667,2.771757239,2.790791079,3.555753601,2.639572436,5.167681758,1.601902744,1.902964994,3.013152595,-171,34,34,2,37,2106,754,1377,2185,1844,1211
158,2.526496555,3.048321125,3.855332991,2.855174619,2.106795772,3.653244689,3.22001283,1.923701987,3.662101633,3.202707742,1.344340928,142,34,34,0,36,1305,1391,1631,176,1930,1309
158.5,2.599028769,3.235266776,3.685428883,2.785439823,3.726283221,2.892785824,2.071813779,1.012486028,4.652899417,0.051116685,4.873577026,8,34,34,2,36,1292,2204,980,655,1987,1282
159,3.372230708,2.92146684,3.585299335,2.937161647,3.797963411,2.95840095,2.879282973,3.763529686,5.278701717,3.653715074,2.601150828,43,34,34,1,29,1438,961,1031,2168,1082,1275
159.5,3.552779824,2.382586325,3.597772691,2.317880332,2.11757209,2.941593723,3.030564025,0.191616668,1.138546026,3.599568348,5.060099983,43,34,34,0,39,1854,2393,1872,374,1015,1206
160,2.003113917,2.938817009,2.805515077,3.858250318,3.663013038,3.292958318,3.490532468,3.03557732,3.941580823,2.191927809,3.871384215,38,34,34,3,0,1863,6,328,2212,1871,1151
160.5,3.99158201,2.101760807,3.291591763,2.375460023,2.688274441,3.157043898,5.27709697,0.442138789,5.113116657,5.014769967,1.408267223,62,34,34,3,23,590,2104,1315,2025,1515,1494
161,2.16959019,3.335122321,3.37612152,2.248330272,3.240664464,2.681505594,4.888535934,3.288770813,0.85391587,2.386293134,1.401794688,-66,34,34,2,0,968,1749,1864,2061,1224,1322
161.5,2.313114285,2.061037816,3.403481576,3.002853051,2.918357367,3.566309953,4.538423394,5.588856769,4.309930475,2.418812082,4.624974643,-138,34,34,1,11,177,106,63,645,1952,1673
162,3.037232426,2.493216496,2.916222724,3.993374227,3.093735278,2.950902222,0.522052536,5.261862242,5.116814586,1.621556301,2.999587771,-173,34,34,2,10,24,1217,409,153,1320,1589
162.5,3.310883274,2.655140612,2.473887614,2.574106697,3.069165587,3.620690523,0.286845976,5.704089425,5.268249877,1.743533288,2.136782724,-15,34,34,2,23,552,1695,1430,1113,1253,1607
163,2.178991114,2.248546853,2.426493778,2.662060862,3.429069319,3.692681874,1.524559845,0.267769526,1.44138551,5.622023732,4.113502878,-13,34,34,2,29,94,404,689,1067,1572,1018
163.5,3.024423039,2.408242499,3.826881575,2.271776358,3.522856267,3.388408591,2.278347235,5.450949686,1.677560892,5.043111702,1.457512899,81,34,34,0,19,638,1855,1487,2240,1430,1485
164,3.383623377,2.395780155,2.831932851,3.736386039,2.5545873,3.887870349,1.221123133,2.953443173,0.100415669,1.912130143,0.638376786,-36,34,34,0,37,1786,1276,1432,1115,1704,1579
164.5,2.416901113,3.992575507,2.599032941,2.229607039,3.756083985,2.614635827,0.682922765,1.834096724,4.430204133,3.643382868,0.831394886,80,34,34,3,32,2118,779,1535,1585,1114,1918
165,2.026121551,2.724997718,2.174055695,3.15540327,2.125572106,2.057968031,2.452797988,1.26951465,1.905510421,3.210165875,4.895251538,60,34,34,1,39,1540,190,386,916,1299,1440
165.5,3.629763266,2.845807413,2.514555073,2.525031318,2.23329768,2.866499171,5.407415177,5.454201018,4.379741804,4.86260845,4.182219043,135,34,34,1,22,968,824,265,499,1031,1391
166,3.208392848,2.862282342,2.720468722,2.809910244,3.873099475,3.045506509,4.297519665,2.667792884,4.144809213,1.328095115,5.457535788,17,34,34,1,3,2325,773,1004,1973,1908,1828
166.5,2.242841138,3.42314377,3.364115283,3.936625208,3.600491876,3.948429818,4.874994493,1.866263213,5.855569751,2.597287352,1.119947773,129,34,34,3,7,1940,58,282,888,1017,1429
167,3.552965017,3.398875171,2.118481559,2.124898588,2.233739606,2.863845139,0.697453673,2.706029817,5.905099093,4.565206619,0.164874561,-101,34,34,0,7,1272,2007,2292,2245,1602,1588
167.5,2.888818903,2.915052602,2.812279786,2.032879468,3.13039885,3.554171532,5.20487676,5.036882856,2.861279273,1.559529468,5.301401159,-135,34,34,2,1,1761,517,1936,1743,1010,1696
