time,cell0,cell1,cell2,cell3,cell4,cell5,acc_x,acc_y,acc_z,roll,pitch,yaw,latitude,longitude,satellites,velocity,rpm_lr,rpm_rr,rpm_lf,rpm_rf,steering,throttle 
1714019161.593913,0.0,0.0,0.0,0.392984375,0.48462500000000003,0.0,0.0718505859375,-0.8813671875000001,9.800419921875001,-5.16357421875,-0.439453125,109.3963623046875,0.0,0.0,0,0.0,0.0,0.0,0.0,0.0,0.0,0.0 
1714019162.4051414,0.0,0.0,0.0,0.392984375,0.48462500000000003,0.0,0.067060546875,-0.890947265625,9.800419921875001,-5.16357421875,-0.439453125,109.3963623046875,0.0,0.0,0,0.0,0.0,0.0,0.0,0.0,0.0,0.0 
1714019162.473188,0.0,0.0,0.0,0.392984375,0.48462500000000003,0.0,0.076640625,-0.8813671875000001,9.800419921875001,-5.16357421875,-0.439453125,109.3963623046875,0.0,0.0,0,0.0,0.0,0.0,0.0,0.0,0.0,0.0 
1714019162.5412128,0.0,0.0,0.0,0.392984375,0.48462500000000003,0.0,0.0718505859375,-0.8861572265625001,9.7956298828125,-5.16357421875,-0.439453125,109.3963623046875,0.0,0.0,0,0.0,0.0,0.0,0.0,0.0,0.0,0.0 
1714019162.6092486,0.0,0.0,0.0,0.392984375,0.48462500000000003,0.0,0.076640625,-0.8861572265625001,9.8052099609375,-5.16357421875,-0.439453125,109.3963623046875,0.0,0.0,0,0.0,0.0,0.0,0.0,0.0,0.0,0.0 
1714019162.6772878,0.0,0.0,0.0,0.392984375,0.48462500000000003,0.0,0.0718505859375,-0.8861572265625001,9.8052099609375,-5.16357421875,-0.439453125,109.3963623046875,0.0,0.0,0,0.0,0.0,0.0,0.0,0.0,0.0,0.0 
1714019162.7453132,0.0,0.0,0.0,0.392984375,0.48462500000000003,0.0,0.076640625,-0.8813671875000001,9.800419921875001,-5.16357421875,-0.439453125,109.3963623046875,0.0,0.0,0,0.0,0.0,0.0,0.0,0.0,0.0,0.0 
1714019162.8133585,0.0,0.0,0.0,0.392984375,0.48462500000000003,0.0,0.076640625,-0.8861572265625001,9.800419921875001,-5.16357421875,-0.439453125,109.3963623046875,0.0,0.0,0,0.0,0.0,0.0,0.0,0.0,0.0,0.0 
1714019162.881389,0.0,0.0,0.0,0.392984375,0.48462500000000003,0.0,0.076640625,-0.8861572265625001,9.8052099609375,-5.16357421875,-0.439453125,109.3963623046875,0.0,0.0,0,0.0,0.0,0.0,0.0,0.0,0.0,0.0 
1714019162.9494221,0.0,0.0,0.0,0.392984375,0.48462500000000003,0.0,0.067060546875,-0.8813671875000001,9.800419921875001,-5.16357421875,-0.439453125,109.3963623046875,0.0,0.0,0,0.0,0.0,0.0,0.0,0.0,0.0,0.0 
1714019163.0174513,0.0,0.0,0.0,0.393,0.48462500000000003,0.0,0.076640625,-0.8813671875000001,9.79083984375,-5.1690673828125,-0.439453125,109.3963623046875,0.0,0.0,0,0.0,0.0,0.0,0.0,0.0,0.0,0.0 
1714019163.8319495,0.0,0.0,0.0,0.393,0.48462500000000003,0.0,0.0718505859375,-0.8861572265625001,9.7956298828125,-5.1690673828125,-0.439453125,109.3963623046875,0.0,0.0,0,0.0,0.0,0.0,0.0,0.0,0.0,0.0 
1714019163.8999836,0.0,0.0,0.0,0.393,0.48462500000000003,0.0,0.0718505859375,-0.8861572265625001,9.800419921875001,-5.1690673828125,-0.439453125,109.3963623046875,0.0,0.0,0,0.0,0.0,0.0,0.0,0.0,0.0,0.0 
1714019163.9680166,0.0,0.0,0.0,0.393,0.48462500000000003,0.0,0.0718505859375,-0.8813671875000001,9.800419921875001,-5.16357421875,-0.439453125,109.3963623046875,0.0,0.0,0,0.0,0.0,0.0,0.0,0.0,0.0,0.0 
1714019164.0360374,0.0,0.0,0.0,0.393,0.48462500000000003,0.0,0.076640625,-0.8861572265625001,9.8052099609375,-5.16357421875,-0.439453125,109.3963623046875,0.0,0.0,0,0.0,0.0,0.0,0.0,0.0,0.0,0.0 
1714019164.1040716,0.0,0.0,0.0,0.393,0.48462500000000003,0.0,0.076640625,-0.8861572265625001,9.800419921875001,-5.16357421875,-0.439453125,109.3963623046875,0.0,0.0,0,0.0,0.0,0.0,0.0,0.0,0.0,0.0 
1714019164.172113,0.0,0.0,0.0,0.393,0.48462500000000003,0.0,0.0622705078125,-0.8765771484375,9.800419921875001,-5.16357421875,-0.439453125,109.3963623046875,0.0,0.0,0,0.0,0.0,0.0,0.0,0.0,0.0,0.0 
1714019164.240137,0.0,0.0,0.0,0.393,0.48462500000000003,0.0,0.0718505859375,-0.8813671875000001,9.800419921875001,-5.16357421875,-0.439453125,109.3963623046875,0.0,0.0,0,0.0,0.0,0.0,0.0,0.0,0.0,0.0 
1714019164.3081763,0.0,0.0,0.0,0.393,0.48462500000000003,0.0,0.067060546875,-0.8813671875000001,9.800419921875001,-5.16357421875,-0.439453125,109.3963623046875,0.0,0.0,0,0.0,0.0,0.0,0.0,0.0,0.0,0.0 
1714019164.376223,0.0,0.0,0.0,0.393,0.48462500000000003,0.0,0.076640625,-0.890947265625,9.7956298828125,-5.16357421875,-0.4339599609375,109.3963623046875,0.0,0.0,0,0.0,0.0,0.0,0.0,0.0,0.0,0.0 
1714019164.4442668,0.0,0.0,0.0,0.392984375,0.48462500000000003,0.0,0.0718505859375,-0.8813671875000001,9.7956298828125,-5.16357421875,-0.4339599609375,109.3963623046875,0.0,0.0,0,0.0,0.0,0.0,0.0,0.0,0.0,0.0 
1714019165.258031,0.0,0.0,0.0,0.392984375,0.48462500000000003,0.0,0.067060546875,-0.8765771484375,9.800419921875001,-5.16357421875,-0.4339599609375,109.3963623046875,0.0,0.0,0,0.0,0.0,0.0,0.0,0.0,0.0,0.0 
1714019165.3260674,0.0,0.0,0.0,0.392984375,0.48462500000000003,0.0,0.076640625,-0.8861572265625001,9.800419921875001,-5.16357421875,-0.4339599609375,109.3963623046875,0.0,0.0,0,0.0,0.0,0.0,0.0,0.0,0.0,0.0 
1714019165.394098,0.0,0.0,0.0,0.392984375,0.48462500000000003,0.0,0.0718505859375,-0.8861572265625001,9.7956298828125,-5.16357421875,-0.4339599609375,109.3963623046875,0.0,0.0,0,0.0,0.0,0.0,0.0,0.0,0.0,0.0 
1714019165.4621353,0.0,0.0,0.0,0.392984375,0.48462500000000003,0.0,0.0718505859375,-0.8813671875000001,9.8052099609375,-5.16357421875,-0.4339599609375,109.3963623046875,0.0,0.0,0,0.0,0.0,0.0,0.0,0.0,0.0,0.0 
1714019165.53017,0.0,0.0,0.0,0.392984375,0.48462500000000003,0.0,0.067060546875,-0.8861572265625001,9.79083984375,-5.16357421875,-0.4339599609375,109.3963623046875,0.0,0.0,0,0.0,0.0,0.0,0.0,0.0,0.0,0.0 
1714019165.5981953,0.0,0.0,0.0,0.392984375,0.48462500000000003,0.0,0.076640625,-0.8861572265625001,9.8052099609375,-5.16357421875,-0.4339599609375,109.3963623046875,0.0,0.0,0,0.0,0.0,0.0,0.0,0.0,0.0,0.0 
1714019165.6662195,0.0,0.0,0.0,0.392984375,0.48462500000000003,0.0,0.067060546875,-0.8861572265625001,9.800419921875001,-5.16357421875,-0.4339599609375,109.3963623046875,0.0,0.0,0,0.0,0.0,0.0,0.0,0.0,0.0,0.0 
1714019165.7343009,0.0,0.0,0.0,0.392984375,0.48462500000000003,0.0,0.067060546875,-0.890947265625,9.8052099609375,-5.16357421875,-0.4339599609375,109.3963623046875,0.0,0.0,0,0.0,0.0,0.0,0.0,0.0,0.0,0.0 
1714019165.8023727,0.0,0.0,0.0,0.392984375,0.48462500000000003,0.0,0.0718505859375,-0.8861572265625001,9.800419921875001,-5.16357421875,-0.4339599609375,109.3963623046875,0.0,0.0,0,0.0,0.0,0.0,0.0,0.0,0.0,0.0 
1714019165.870489,0.0,0.0,0.0,0.39296875000000003,0.48462500000000003,0.0,0.0718505859375,-0.8861572265625001,9.800419921875001,-5.16357421875,-0.4339599609375,109.3963623046875,0.0,0.0,0,0.0,0.0,0.0,0.0,0.0,0.0,0.0 
1714019166.6846783,0.0,0.0,0.0,0.39296875000000003,0.48462500000000003,0.0,0.067060546875,-0.8813671875000001,9.8052099609375,-5.16357421875,-0.4339599609375,109.3963623046875,0.0,0.0,0,0.0,0.0,0.0,0.0,0.0,0.0,0.0 
1714019166.7527304,0.0,0.0,0.0,0.39296875000000003,0.48462500000000003,0.0,0.076640625,-0.8813671875000001,9.81,-5.16357421875,-0.428466796875,109.3963623046875,0.0,0.0,0,0.0,0.0,0.0,0.0,0.0,0.0,0.0 
1714019166.8207626,0.0,0.0,0.0,0.39296875000000003,0.48462500000000003,0.0,0.076640625,-0.8861572265625001,9.800419921875001,-5.16357421875,-0.428466796875,109.3963623046875,0.0,0.0,0,0.0,0.0,0.0,0.0,0.0,0.0,0.0 
1714019166.8888116,0.0,0.0,0.0,0.39296875000000003,0.48462500000000003,0.0,0.067060546875,-0.8861572265625001,9.800419921875001,-5.16357421875,-0.428466796875,109.3963623046875,0.0,0.0,0,0.0,0.0,0.0,0.0,0.0,0.0,0.0 
1714019166.9568443,0.0,0.0,0.0,0.39296875000000003,0.48462500000000003,0.0,0.0718505859375,-0.8813671875000001,9.800419921875001,-5.16357421875,-0.428466796875,109.3963623046875,0.0,0.0,0,0.0,0.0,0.0,0.0,0.0,0.0,0.0 
1714019167.0248935,0.0,0.0,0.0,0.39296875000000003,0.48462500000000003,0.0,0.0718505859375,-0.8765771484375,9.8052099609375,-5.16357421875,-0.428466796875,109.3963623046875,0.0,0.0,0,0.0,0.0,0.0,0.0,0.0,0.0,0.0 
1714019167.0929296,0.0,0.0,0.0,0.39296875000000003,0.48462500000000003,0.0,0.067060546875,-0.8861572265625001,9.800419921875001,-5.16357421875,-0.428466796875,109.3963623046875,0.0,0.0,0,0.0,0.0,0.0,0.0,0.0,0.0,0.0 
1714019167.160969,0.0,0.0,0.0,0.39296875000000003,0.48462500000000003,0.0,0.067060546875,-0.8861572265625001,9.7956298828125,-5.16357421875,-0.428466796875,109.3963623046875,0.0,0.0,0,0.0,0.0,0.0,0.0,0.0,0.0,0.0 
1714019167.2290177,0.0,0.0,0.0,0.39296875000000003,0.48462500000000003,0.0,0.076640625,-0.8861572265625001,9.8052099609375,-5.16357421875,-0.428466796875,109.3963623046875,0.0,0.0,0,0.0,0.0,0.0,0.0,0.0,0.0,0.0 
1714019167.2970412,0.0,0.0,0.0,0.392984375,0.484609375,0.0,0.0718505859375,-0.890947265625,9.7956298828125,-5.16357421875,-0.428466796875,109.3963623046875,0.0,0.0,0,0.0,0.0,0.0,0.0,0.0,0.0,0.0 
1714019168.1111932,0.0,0.0,0.0,0.392984375,0.484609375,0.0,0.05748046875,-0.8813671875000001,9.8052099609375,-5.16357421875,-0.428466796875,109.3963623046875,0.0,0.0,0,0.0,0.0,0.0,0.0,0.0,0.0,0.0 
1714019168.179227,0.0,0.0,0.0,0.392984375,0.484609375,0.0,0.067060546875,-0.8861572265625001,9.800419921875001,-5.16357421875,-0.428466796875,109.3963623046875,0.0,0.0,0,0.0,0.0,0.0,0.0,0.0,0.0,0.0 
1714019168.2472324,0.0,0.0,0.0,0.392984375,0.484609375,0.0,0.0718505859375,-0.8861572265625001,9.7956298828125,-5.16357421875,-0.4229736328125,109.3963623046875,0.0,0.0,0,0.0,0.0,0.0,0.0,0.0,0.0,0.0 
1714019168.3152761,0.0,0.0,0.0,0.392984375,0.484609375,0.0,0.067060546875,-0.8813671875000001,9.800419921875001,-5.16357421875,-0.4229736328125,109.3963623046875,0.0,0.0,0,0.0,0.0,0.0,0.0,0.0,0.0,0.0 
1714019168.383297,0.0,0.0,0.0,0.392984375,0.484609375,0.0,0.0718505859375,-0.8861572265625001,9.7956298828125,-5.16357421875,-0.4229736328125,109.3963623046875,0.0,0.0,0,0.0,0.0,0.0,0.0,0.0,0.0,0.0 
1714019168.4513333,0.0,0.0,0.0,0.392984375,0.484609375,0.0,0.0718505859375,-0.8765771484375,9.8052099609375,-5.16357421875,-0.4229736328125,109.3963623046875,0.0,0.0,0,0.0,0.0,0.0,0.0,0.0,0.0,0.0 
1714019168.5193615,0.0,0.0,0.0,0.392984375,0.484609375,0.0,0.0718505859375,-0.8861572265625001,9.8052099609375,-5.16357421875,-0.4229736328125,109.3963623046875,0.0,0.0,0,0.0,0.0,0.0,0.0,0.0,0.0,0.0 
1714019168.587412,0.0,0.0,0.0,0.392984375,0.484609375,0.0,0.076640625,-0.8765771484375,9.7956298828125,-5.16357421875,-0.4229736328125,109.3963623046875,0.0,0.0,0,0.0,0.0,0.0,0.0,0.0,0.0,0.0 
1714019168.6554644,0.0,0.0,0.0,0.392984375,0.484609375,0.0,0.0718505859375,-0.8813671875000001,9.800419921875001,-5.16357421875,-0.4229736328125,109.3963623046875,0.0,0.0,0,0.0,0.0,0.0,0.0,0.0,0.0,0.0 
1714019168.723498,0.0,0.0,0.0,0.39296875000000003,0.484609375,-1.5625e-05,0.0814306640625,-0.8765771484375,9.8052099609375,-5.1580810546875,-0.428466796875,109.3963623046875,0.0,0.0,0,0.0,0.0,0.0,0.0,0.0,0.0,0.0 
1714019169.5379057,0.0,0.0,0.0,0.39296875000000003,0.484609375,-1.5625e-05,0.076640625,-0.8813671875000001,9.8052099609375,-5.1580810546875,-0.428466796875,109.3963623046875,0.0,0.0,0,0.0,0.0,0.0,0.0,0.0,0.0,0.0 
1714019169.6059268,0.0,0.0,0.0,0.39296875000000003,0.484609375,-1.5625e-05,0.067060546875,-0.8813671875000001,9.8052099609375,-5.1580810546875,-0.428466796875,109.3963623046875,0.0,0.0,0,0.0,0.0,0.0,0.0,0.0,0.0,0.0 
1714019169.6739872,0.0,0.0,0.0,0.39296875000000003,0.484609375,-1.5625e-05,0.076640625,-0.890947265625,9.81,-5.1580810546875,-0.428466796875,109.3963623046875,0.0,0.0,0,0.0,0.0,0.0,0.0,0.0,0.0,0.0 
1714019169.742016,0.0,0.0,0.0,0.39296875000000003,0.484609375,-1.5625e-05,0.067060546875,-0.8813671875000001,9.8052099609375,-5.1580810546875,-0.428466796875,109.3963623046875,0.0,0.0,0,0.0,0.0,0.0,0.0,0.0,0.0,0.0 
1714019169.8100924,0.0,0.0,0.0,0.39296875000000003,0.484609375,-1.5625e-05,0.0718505859375,-0.8861572265625001,9.7956298828125,-5.1580810546875,-0.428466796875,109.3963623046875,0.0,0.0,0,0.0,0.0,0.0,0.0,0.0,0.0,0.0 
1714019169.878132,0.0,0.0,0.0,0.39296875000000003,0.484609375,-1.5625e-05,0.076640625,-0.8813671875000001,9.8052099609375,-5.1580810546875,-0.428466796875,109.3963623046875,0.0,0.0,0,0.0,0.0,0.0,0.0,0.0,0.0,0.0 
1714019169.9462051,0.0,0.0,0.0,0.39296875000000003,0.484609375,-1.5625e-05,0.0718505859375,-0.8765771484375,9.8052099609375,-5.1580810546875,-0.428466796875,109.3963623046875,0.0,0.0,0,0.0,0.0,0.0,0.0,0.0,0.0,0.0 
1714019170.014236,0.0,0.0,0.0,0.39296875000000003,0.484609375,-1.5625e-05,0.067060546875,-0.890947265625,9.8052099609375,-5.1580810546875,-0.428466796875,109.3963623046875,0.0,0.0,0,0.0,0.0,0.0,0.0,0.0,0.0,0.0 
1714019170.0822728,0.0,0.0,0.0,0.39296875000000003,0.484609375,-1.5625e-05,0.0718505859375,-0.8813671875000001,9.800419921875001,-5.1580810546875,-0.428466796875,109.3963623046875,0.0,0.0,0,0.0,0.0,0.0,0.0,0.0,0.0,0.0 
1714019170.1503193,0.0,0.0,0.0,0.39296875000000003,0.484609375,0.0,0.0814306640625,-0.8813671875000001,9.800419921875001,-5.1580810546875,-0.428466796875,109.3963623046875,0.0,0.0,0,0.0,0.0,0.0,0.0,0.0,0.0,0.0 
1714019170.964524,0.0,0.0,0.0,0.39296875000000003,0.484609375,0.0,0.076640625,-0.8813671875000001,9.800419921875001,-5.1580810546875,-0.428466796875,109.3963623046875,0.0,0.0,0,0.0,0.0,0.0,0.0,0.0,0.0,0.0 
1714019171.0325634,0.0,0.0,0.0,0.39296875000000003,0.484609375,0.0,0.0718505859375,-0.890947265625,9.800419921875001,-5.1580810546875,-0.428466796875,109.3963623046875,0.0,0.0,0,0.0,0.0,0.0,0.0,0.0,0.0,0.0 
1714019171.1006086,0.0,0.0,0.0,0.39296875000000003,0.484609375,0.0,0.0814306640625,-0.8813671875000001,9.8052099609375,-5.1580810546875,-0.428466796875,109.3963623046875,0.0,0.0,0,0.0,0.0,0.0,0.0,0.0,0.0,0.0 
1714019171.1686797,0.0,0.0,0.0,0.39296875000000003,0.484609375,0.0,0.067060546875,-0.8861572265625001,9.7956298828125,-5.1580810546875,-0.428466796875,109.3963623046875,0.0,0.0,0,0.0,0.0,0.0,0.0,0.0,0.0,0.0 
1714019171.2367003,0.0,0.0,0.0,0.39296875000000003,0.484609375,0.0,0.0718505859375,-0.8813671875000001,9.8052099609375,-5.1580810546875,-0.428466796875,109.3963623046875,0.0,0.0,0,0.0,0.0,0.0,0.0,0.0,0.0,0.0 
1714019171.3047383,0.0,0.0,0.0,0.39296875000000003,0.484609375,0.0,0.067060546875,-0.8957373046875,9.800419921875001,-5.1580810546875,-0.428466796875,109.3963623046875,0.0,0.0,0,0.0,0.0,0.0,0.0,0.0,0.0,0.0 
1714019171.3727512,0.0,0.0,0.0,0.39296875000000003,0.484609375,0.0,0.0622705078125,-0.8861572265625001,9.800419921875001,-5.1580810546875,-0.428466796875,109.3963623046875,0.0,0.0,0,0.0,0.0,0.0,0.0,0.0,0.0,0.0 
1714019171.4407942,0.0,0.0,0.0,0.39296875000000003,0.484609375,0.0,0.076640625,-0.8861572265625001,9.800419921875001,-5.1580810546875,-0.428466796875,109.3963623046875,0.0,0.0,0,0.0,0.0,0.0,0.0,0.0,0.0,0.0 
1714019171.508792,0.0,0.0,0.0,0.39296875000000003,0.484609375,0.0,0.067060546875,-0.8813671875000001,9.800419921875001,-5.1580810546875,-0.428466796875,109.3963623046875,0.0,0.0,0,0.0,0.0,0.0,0.0,0.0,0.0,0.0 
1714019171.5768664,0.0,0.0,0.0,0.39296875000000003,0.484609375,0.0,0.076640625,-0.8861572265625001,9.8052099609375,-5.1580810546875,-0.428466796875,109.3963623046875,0.0,0.0,0,0.0,0.0,0.0,0.0,0.0,0.0,0.0 
1714019172.3913543,0.0,0.0,0.0,0.39296875000000003,0.484609375,0.0,0.0718505859375,-0.8861572265625001,9.800419921875001,-5.1580810546875,-0.428466796875,109.3963623046875,0.0,0.0,0,0.0,0.0,0.0,0.0,0.0,0.0,0.0 
1714019172.459384,0.0,0.0,0.0,0.39296875000000003,0.484609375,0.0,0.0718505859375,-0.8861572265625001,9.8052099609375,-5.1580810546875,-0.428466796875,109.3963623046875,0.0,0.0,0,0.0,0.0,0.0,0.0,0.0,0.0,0.0 
1714019172.5274372,0.0,0.0,0.0,0.39296875000000003,0.484609375,0.0,0.0718505859375,-0.8813671875000001,9.7956298828125,-5.1580810546875,-0.428466796875,109.3963623046875,0.0,0.0,0,0.0,0.0,0.0,0.0,0.0,0.0,0.0 
1714019172.5954762,0.0,0.0,0.0,0.39296875000000003,0.484609375,0.0,0.0718505859375,-0.8861572265625001,9.800419921875001,-5.1580810546875,-0.428466796875,109.3963623046875,0.0,0.0,0,0.0,0.0,0.0,0.0,0.0,0.0,0.0 
1714019172.6635218,0.0,0.0,0.0,0.39296875000000003,0.484609375,0.0,0.0718505859375,-0.8813671875000001,9.800419921875001,-5.1580810546875,-0.4229736328125,109.3963623046875,0.0,0.0,0,0.0,0.0,0.0,0.0,0.0,0.0,0.0 
1714019172.7315683,0.0,0.0,0.0,0.39296875000000003,0.484609375,0.0,0.076640625,-0.8813671875000001,9.800419921875001,-5.1580810546875,-0.4229736328125,109.3963623046875,0.0,0.0,0,0.0,0.0,0.0,0.0,0.0,0.0,0.0 
1714019172.7996125,0.0,0.0,0.0,0.39296875000000003,0.484609375,0.0,0.0718505859375,-0.8861572265625001,9.800419921875001,-5.1580810546875,-0.428466796875,109.3963623046875,0.0,0.0,0,0.0,0.0,0.0,0.0,0.0,0.0,0.0 
1714019172.8676467,0.0,0.0,0.0,0.39296875000000003,0.484609375,0.0,0.0622705078125,-0.8861572265625001,9.79083984375,-5.1580810546875,-0.428466796875,109.3963623046875,0.0,0.0,0,0.0,0.0,0.0,0.0,0.0,0.0,0.0 
1714019172.93568,0.0,0.0,0.0,0.39296875000000003,0.484609375,0.0,0.067060546875,-0.8813671875000001,9.79083984375,-5.1580810546875,-0.428466796875,109.3963623046875,0.0,0.0,0,0.0,0.0,0.0,0.0,0.0,0.0,0.0 
1714019173.0037231,0.0,0.0,0.0,0.392953125,0.484609375,0.0,0.067060546875,-0.8813671875000001,9.800419921875001,-5.16357421875,-0.4229736328125,109.3963623046875,0.0,0.0,0,0.0,0.0,0.0,0.0,0.0,0.0,0.0 
1714019173.8179677,0.0,0.0,0.0,0.392953125,0.484609375,0.0,0.076640625,-0.8813671875000001,9.7956298828125,-5.16357421875,-0.4229736328125,109.3963623046875,0.0,0.0,0,0.0,0.0,0.0,0.0,0.0,0.0,0.0 
1714019173.8859904,0.0,0.0,0.0,0.392953125,0.484609375,0.0,0.0718505859375,-0.8861572265625001,9.81,-5.1580810546875,-0.4229736328125,109.3963623046875,0.0,0.0,0,0.0,0.0,0.0,0.0,0.0,0.0,0.0 
1714019173.9540179,0.0,0.0,0.0,0.392953125,0.484609375,0.0,0.067060546875,-0.8813671875000001,9.7956298828125,-5.1580810546875,-0.4229736328125,109.3963623046875,0.0,0.0,0,0.0,0.0,0.0,0.0,0.0,0.0,0.0 
1714019174.0220635,0.0,0.0,0.0,0.392953125,0.484609375,0.0,0.076640625,-0.8813671875000001,9.800419921875001,-5.1580810546875,-0.4229736328125,109.3963623046875,0.0,0.0,0,0.0,0.0,0.0,0.0,0.0,0.0,0.0 
1714019174.0900955,0.0,0.0,0.0,0.392953125,0.484609375,0.0,0.067060546875,-0.8813671875000001,9.8052099609375,-5.1580810546875,-0.4229736328125,109.3963623046875,0.0,0.0,0,0.0,0.0,0.0,0.0,0.0,0.0,0.0 
1714019174.1581259,0.0,0.0,0.0,0.392953125,0.484609375,0.0,0.0718505859375,-0.8765771484375,9.79083984375,-5.1580810546875,-0.4229736328125,109.3963623046875,0.0,0.0,0,0.0,0.0,0.0,0.0,0.0,0.0,0.0 
1714019174.2261612,0.0,0.0,0.0,0.392953125,0.484609375,0.0,0.0718505859375,-0.8813671875000001,9.7956298828125,-5.1580810546875,-0.4229736328125,109.3963623046875,0.0,0.0,0,0.0,0.0,0.0,0.0,0.0,0.0,0.0 
1714019174.294234,0.0,0.0,0.0,0.392953125,0.484609375,0.0,0.076640625,-0.8765771484375,9.800419921875001,-5.1580810546875,-0.4229736328125,109.3963623046875,0.0,0.0,0,0.0,0.0,0.0,0.0,0.0,0.0,0.0 
1714019174.3622942,0.0,0.0,0.0,0.392953125,0.484609375,0.0,0.067060546875,-0.8765771484375,9.7956298828125,-5.1580810546875,-0.4229736328125,109.3963623046875,0.0,0.0,0,0.0,0.0,0.0,0.0,0.0,0.0,0.0 
1714019174.4303703,0.0,0.0,0.0,0.392953125,0.484609375,3.125e-05,0.0718505859375,-0.8765771484375,9.800419921875001,-5.152587890625,-0.4229736328125,109.3963623046875,0.0,0.0,0,0.0,0.0,0.0,0.0,0.0,0.0,0.0 
1714019175.244121,0.0,0.0,0.0,0.392953125,0.484609375,3.125e-05,0.0718505859375,-0.8813671875000001,9.7956298828125,-5.152587890625,-0.4229736328125,109.3963623046875,0.0,0.0,0,0.0,0.0,0.0,0.0,0.0,0.0,0.0 
1714019175.312171,0.0,0.0,0.0,0.392953125,0.484609375,3.125e-05,0.0718505859375,-0.8813671875000001,9.800419921875001,-5.152587890625,-0.428466796875,109.3963623046875,0.0,0.0,0,0.0,0.0,0.0,0.0,0.0,0.0,0.0 
1714019175.3802125,0.0,0.0,0.0,0.392953125,0.484609375,3.125e-05,0.067060546875,-0.8861572265625001,9.800419921875001,-5.1580810546875,-0.428466796875,109.3963623046875,0.0,0.0,0,0.0,0.0,0.0,0.0,0.0,0.0,0.0 
1714019175.4482515,0.0,0.0,0.0,0.392953125,0.484609375,3.125e-05,0.0718505859375,-0.8861572265625001,9.8052099609375,-5.1580810546875,-0.428466796875,109.3963623046875,0.0,0.0,0,0.0,0.0,0.0,0.0,0.0,0.0,0.0 
1714019175.5163226,0.0,0.0,0.0,0.392953125,0.484609375,3.125e-05,0.067060546875,-0.8813671875000001,9.7956298828125,-5.1580810546875,-0.428466796875,109.3963623046875,0.0,0.0,0,0.0,0.0,0.0,0.0,0.0,0.0,0.0 
1714019175.584394,0.0,0.0,0.0,0.392953125,0.484609375,3.125e-05,0.067060546875,-0.8861572265625001,9.800419921875001,-5.1580810546875,-0.428466796875,109.3963623046875,0.0,0.0,0,0.0,0.0,0.0,0.0,0.0,0.0,0.0 
1714019175.6524558,0.0,0.0,0.0,0.392953125,0.484609375,3.125e-05,0.076640625,-0.8765771484375,9.800419921875001,-5.1580810546875,-0.428466796875,109.3963623046875,0.0,0.0,0,0.0,0.0,0.0,0.0,0.0,0.0,0.0 
1714019175.7205105,0.0,0.0,0.0,0.392953125,0.484609375,3.125e-05,0.0718505859375,-0.8765771484375,9.8052099609375,-5.1580810546875,-0.428466796875,109.3963623046875,0.0,0.0,0,0.0,0.0,0.0,0.0,0.0,0.0,0.0 
1714019175.7885728,0.0,0.0,0.0,0.392953125,0.484609375,3.125e-05,0.067060546875,-0.890947265625,9.8052099609375,-5.1580810546875,-0.428466796875,109.3963623046875,0.0,0.0,0,0.0,0.0,0.0,0.0,0.0,0.0,0.0 
1714019175.8566415,0.0,0.0,0.0,0.392984375,0.484609375,1.5625e-05,0.05748046875,-0.8813671875000001,9.7956298828125,-5.152587890625,-0.428466796875,109.3963623046875,0.0,0.0,0,0.0,0.0,0.0,0.0,0.0,0.0,0.0 
1714019176.6701238,0.0,0.0,0.0,0.392984375,0.484609375,1.5625e-05,0.076640625,-0.871787109375,9.800419921875001,-5.152587890625,-0.428466796875,109.3963623046875,0.0,0.0,0,0.0,0.0,0.0,0.0,0.0,0.0,0.0 
1714019176.7381992,0.0,0.0,0.0,0.392984375,0.484609375,1.5625e-05,0.0718505859375,-0.8861572265625001,9.8052099609375,-5.152587890625,-0.4229736328125,109.3963623046875,0.0,0.0,0,0.0,0.0,0.0,0.0,0.0,0.0,0.0 
1714019176.806252,0.0,0.0,0.0,0.392984375,0.484609375,1.5625e-05,0.076640625,-0.8861572265625001,9.8052099609375,-5.152587890625,-0.4229736328125,109.3963623046875,0.0,0.0,0,0.0,0.0,0.0,0.0,0.0,0.0,0.0 
1714019176.8743043,0.0,0.0,0.0,0.392984375,0.484609375,1.5625e-05,0.067060546875,-0.8765771484375,9.8052099609375,-5.152587890625,-0.4229736328125,109.3963623046875,0.0,0.0,0,0.0,0.0,0.0,0.0,0.0,0.0,0.0 
1714019176.9423695,0.0,0.0,0.0,0.392984375,0.484609375,1.5625e-05,0.076640625,-0.8813671875000001,9.800419921875001,-5.152587890625,-0.4229736328125,109.3963623046875,0.0,0.0,0,0.0,0.0,0.0,0.0,0.0,0.0,0.0 
1714019177.0104408,0.0,0.0,0.0,0.392984375,0.484609375,1.5625e-05,0.0718505859375,-0.8861572265625001,9.8052099609375,-5.152587890625,-0.4229736328125,109.3963623046875,0.0,0.0,0,0.0,0.0,0.0,0.0,0.0,0.0,0.0 
1714019177.0784776,0.0,0.0,0.0,0.392984375,0.484609375,1.5625e-05,0.067060546875,-0.8813671875000001,9.7956298828125,-5.152587890625,-0.4229736328125,109.3963623046875,0.0,0.0,0,0.0,0.0,0.0,0.0,0.0,0.0,0.0 
1714019177.1465032,0.0,0.0,0.0,0.392984375,0.484609375,1.5625e-05,0.0718505859375,-0.8765771484375,9.7956298828125,-5.152587890625,-0.4229736328125,109.3963623046875,0.0,0.0,0,0.0,0.0,0.0,0.0,0.0,0.0,0.0 
1714019177.214548,0.0,0.0,0.0,0.392984375,0.484609375,1.5625e-05,0.076640625,-0.8861572265625001,9.81,-5.152587890625,-0.4229736328125,109.3963623046875,0.0,0.0,0,0.0,0.0,0.0,0.0,0.0,0.0,0.0 
1714019177.2825758,0.0,0.0,0.0,0.39296875000000003,0.484609375,-1.5625e-05,0.076640625,-0.8861572265625001,9.800419921875001,-5.1580810546875,-0.428466796875,109.3963623046875,0.0,0.0,0,0.0,0.0,0.0,0.0,0.0,0.0,0.0 
1714019178.0960095,0.0,0.0,0.0,0.39296875000000003,0.484609375,-1.5625e-05,0.0718505859375,-0.8765771484375,9.81,-5.1580810546875,-0.428466796875,109.3963623046875,0.0,0.0,0,0.0,0.0,0.0,0.0,0.0,0.0,0.0 
1714019178.1640823,0.0,0.0,0.0,0.39296875000000003,0.484609375,-1.5625e-05,0.076640625,-0.8861572265625001,9.8052099609375,-5.1580810546875,-0.428466796875,109.3963623046875,0.0,0.0,0,0.0,0.0,0.0,0.0,0.0,0.0,0.0 
1714019178.2321389,0.0,0.0,0.0,0.39296875000000003,0.484609375,-1.5625e-05,0.076640625,-0.8813671875000001,9.800419921875001,-5.1580810546875,-0.428466796875,109.3963623046875,0.0,0.0,0,0.0,0.0,0.0,0.0,0.0,0.0,0.0 
1714019178.3001766,0.0,0.0,0.0,0.39296875000000003,0.484609375,-1.5625e-05,0.067060546875,-0.8813671875000001,9.7956298828125,-5.1580810546875,-0.428466796875,109.3963623046875,0.0,0.0,0,0.0,0.0,0.0,0.0,0.0,0.0,0.0 
1714019178.3682284,0.0,0.0,0.0,0.39296875000000003,0.484609375,-1.5625e-05,0.0718505859375,-0.8813671875000001,9.800419921875001,-5.1580810546875,-0.428466796875,109.3963623046875,0.0,0.0,0,0.0,0.0,0.0,0.0,0.0,0.0,0.0 
1714019178.4362876,0.0,0.0,0.0,0.39296875000000003,0.484609375,-1.5625e-05,0.067060546875,-0.8861572265625001,9.8052099609375,-5.1580810546875,-0.428466796875,109.3963623046875,0.0,0.0,0,0.0,0.0,0.0,0.0,0.0,0.0,0.0 
1714019178.504384,0.0,0.0,0.0,0.39296875000000003,0.484609375,-1.5625e-05,0.067060546875,-0.8861572265625001,9.800419921875001,-5.1580810546875,-0.428466796875,109.3963623046875,0.0,0.0,0,0.0,0.0,0.0,0.0,0.0,0.0,0.0 
1714019178.5724351,0.0,0.0,0.0,0.39296875000000003,0.484609375,-1.5625e-05,0.067060546875,-0.8813671875000001,9.800419921875001,-5.1580810546875,-0.428466796875,109.3963623046875,0.0,0.0,0,0.0,0.0,0.0,0.0,0.0,0.0,0.0 
1714019178.6405246,0.0,0.0,0.0,0.39296875000000003,0.484609375,-1.5625e-05,0.076640625,-0.8813671875000001,9.8052099609375,-5.1580810546875,-0.428466796875,109.3963623046875,0.0,0.0,0,0.0,0.0,0.0,0.0,0.0,0.0,0.0 
1714019178.7086186,0.0,0.0,0.0,0.392984375,0.48459375,3.125e-05,0.067060546875,-0.8765771484375,9.7956298828125,-5.1580810546875,-0.428466796875,109.3963623046875,0.0,0.0,0,0.0,0.0,0.0,0.0,0.0,0.0,0.0 
1714019179.5224326,0.0,0.0,0.0,0.392984375,0.48459375,3.125e-05,0.0718505859375,-0.8861572265625001,9.7956298828125,-5.1580810546875,-0.428466796875,109.3963623046875,0.0,0.0,0,0.0,0.0,0.0,0.0,0.0,0.0,0.0 
1714019179.5904753,0.0,0.0,0.0,0.392984375,0.48459375,3.125e-05,0.0718505859375,-0.8813671875000001,9.800419921875001,-5.1580810546875,-0.428466796875,109.3963623046875,0.0,0.0,0,0.0,0.0,0.0,0.0,0.0,0.0,0.0 
1714019179.658551,0.0,0.0,0.0,0.392984375,0.48459375,3.125e-05,0.0718505859375,-0.8813671875000001,9.800419921875001,-5.1580810546875,-0.428466796875,109.3963623046875,0.0,0.0,0,0.0,0.0,0.0,0.0,0.0,0.0,0.0 
1714019179.726597,0.0,0.0,0.0,0.392984375,0.48459375,3.125e-05,0.067060546875,-0.8813671875000001,9.81,-5.1580810546875,-0.428466796875,109.3963623046875,0.0,0.0,0,0.0,0.0,0.0,0.0,0.0,0.0,0.0 
1714019179.7946496,0.0,0.0,0.0,0.392984375,0.48459375,3.125e-05,0.0718505859375,-0.8861572265625001,9.800419921875001,-5.1580810546875,-0.428466796875,109.3963623046875,0.0,0.0,0,0.0,0.0,0.0,0.0,0.0,0.0,0.0 
1714019179.8626962,0.0,0.0,0.0,0.392984375,0.48459375,3.125e-05,0.0718505859375,-0.8813671875000001,9.8052099609375,-5.1580810546875,-0.428466796875,109.3963623046875,0.0,0.0,0,0.0,0.0,0.0,0.0,0.0,0.0,0.0 
1714019179.9307942,0.0,0.0,0.0,0.392984375,0.48459375,3.125e-05,0.067060546875,-0.8813671875000001,9.79083984375,-5.1580810546875,-0.428466796875,109.3963623046875,0.0,0.0,0,0.0,0.0,0.0,0.0,0.0,0.0,0.0 
1714019179.9988563,0.0,0.0,0.0,0.392984375,0.48459375,3.125e-05,0.0718505859375,-0.8861572265625001,9.7956298828125,-5.1580810546875,-0.428466796875,109.3963623046875,0.0,0.0,0,0.0,0.0,0.0,0.0,0.0,0.0,0.0 
1714019180.0669143,0.0,0.0,0.0,0.392984375,0.48459375,3.125e-05,0.0622705078125,-0.8861572265625001,9.800419921875001,-5.1580810546875,-0.428466796875,109.3963623046875,0.0,0.0,0,0.0,0.0,0.0,0.0,0.0,0.0,0.0 
1714019180.1349816,0.0,0.0,0.0,0.3929375,0.484609375,-1.5625e-05,0.067060546875,-0.8813671875000001,9.8052099609375,-5.1580810546875,-0.4229736328125,109.3963623046875,0.0,0.0,0,0.0,0.0,0.0,0.0,0.0,0.0,0.0 
1714019180.9488823,0.0,0.0,0.0,0.3929375,0.484609375,-1.5625e-05,0.0718505859375,-0.8861572265625001,9.800419921875001,-5.1580810546875,-0.4229736328125,109.3963623046875,0.0,0.0,0,0.0,0.0,0.0,0.0,0.0,0.0,0.0 
1714019181.0169277,0.0,0.0,0.0,0.3929375,0.484609375,-1.5625e-05,0.0718505859375,-0.8813671875000001,9.8052099609375,-5.1580810546875,-0.4229736328125,109.3963623046875,0.0,0.0,0,0.0,0.0,0.0,0.0,0.0,0.0,0.0 
1714019181.0849733,0.0,0.0,0.0,0.3929375,0.484609375,-1.5625e-05,0.0718505859375,-0.8813671875000001,9.800419921875001,-5.1580810546875,-0.4229736328125,109.3963623046875,0.0,0.0,0,0.0,0.0,0.0,0.0,0.0,0.0,0.0 
1714019181.153002,0.0,0.0,0.0,0.3929375,0.484609375,-1.5625e-05,0.067060546875,-0.8765771484375,9.7956298828125,-5.1580810546875,-0.4229736328125,109.3963623046875,0.0,0.0,0,0.0,0.0,0.0,0.0,0.0,0.0,0.0 
1714019181.2210426,0.0,0.0,0.0,0.3929375,0.484609375,-1.5625e-05,0.076640625,-0.8765771484375,9.800419921875001,-5.1580810546875,-0.4229736328125,109.3963623046875,0.0,0.0,0,0.0,0.0,0.0,0.0,0.0,0.0,0.0 
1714019181.2890787,0.0,0.0,0.0,0.3929375,0.484609375,-1.5625e-05,0.0718505859375,-0.8813671875000001,9.800419921875001,-5.1580810546875,-0.4229736328125,109.3963623046875,0.0,0.0,0,0.0,0.0,0.0,0.0,0.0,0.0,0.0 
1714019181.3571086,0.0,0.0,0.0,0.3929375,0.484609375,-1.5625e-05,0.067060546875,-0.8861572265625001,9.7956298828125,-5.1580810546875,-0.4229736328125,109.3963623046875,0.0,0.0,0,0.0,0.0,0.0,0.0,0.0,0.0,0.0 
1714019181.4251647,0.0,0.0,0.0,0.3929375,0.484609375,-1.5625e-05,0.076640625,-0.8813671875000001,9.8052099609375,-5.1580810546875,-0.4229736328125,109.3963623046875,0.0,0.0,0,0.0,0.0,0.0,0.0,0.0,0.0,0.0 
1714019181.493215,0.0,0.0,0.0,0.3929375,0.484609375,-1.5625e-05,0.076640625,-0.8813671875000001,9.800419921875001,-5.1580810546875,-0.4229736328125,109.3963623046875,0.0,0.0,0,0.0,0.0,0.0,0.0,0.0,0.0,0.0 
1714019181.561257,0.0,0.0,0.0,0.392984375,0.484609375,0.0,0.0718505859375,-0.8813671875000001,9.7956298828125,-5.1580810546875,-0.4229736328125,109.3963623046875,0.0,0.0,0,0.0,0.0,0.0,0.0,0.0,0.0,0.0 
1714019182.375893,0.0,0.0,0.0,0.392984375,0.484609375,0.0,0.067060546875,-0.8861572265625001,9.81,-5.1580810546875,-0.428466796875,109.3963623046875,0.0,0.0,0,0.0,0.0,0.0,0.0,0.0,0.0,0.0 
1714019182.4439564,0.0,0.0,0.0,0.392984375,0.484609375,0.0,0.076640625,-0.8765771484375,9.8052099609375,-5.1580810546875,-0.428466796875,109.3963623046875,0.0,0.0,0,0.0,0.0,0.0,0.0,0.0,0.0,0.0 
1714019182.5120106,0.0,0.0,0.0,0.392984375,0.484609375,0.0,0.067060546875,-0.8813671875000001,9.7956298828125,-5.1580810546875,-0.428466796875,109.3963623046875,0.0,0.0,0,0.0,0.0,0.0,0.0,0.0,0.0,0.0 
1714019182.5800815,0.0,0.0,0.0,0.392984375,0.484609375,0.0,0.0622705078125,-0.8765771484375,9.7956298828125,-5.1580810546875,-0.428466796875,109.3963623046875,0.0,0.0,0,0.0,0.0,0.0,0.0,0.0,0.0,0.0 
1714019182.648163,0.0,0.0,0.0,0.392984375,0.484609375,0.0,0.0718505859375,-0.8813671875000001,9.81,-5.1580810546875,-0.4229736328125,109.3963623046875,0.0,0.0,0,0.0,0.0,0.0,0.0,0.0,0.0,0.0 
1714019182.716263,0.0,0.0,0.0,0.392984375,0.484609375,0.0,0.076640625,-0.8765771484375,9.7956298828125,-5.1580810546875,-0.4229736328125,109.3963623046875,0.0,0.0,0,0.0,0.0,0.0,0.0,0.0,0.0,0.0 
1714019182.784345,0.0,0.0,0.0,0.392984375,0.484609375,0.0,0.067060546875,-0.8813671875000001,9.8052099609375,-5.1580810546875,-0.428466796875,109.3963623046875,0.0,0.0,0,0.0,0.0,0.0,0.0,0.0,0.0,0.0 
1714019182.8524437,0.0,0.0,0.0,0.392984375,0.484609375,0.0,0.0718505859375,-0.8813671875000001,9.8052099609375,-5.1580810546875,-0.428466796875,109.3963623046875,0.0,0.0,0,0.0,0.0,0.0,0.0,0.0,0.0,0.0 
1714019182.9205146,0.0,0.0,0.0,0.392984375,0.484609375,0.0,0.076640625,-0.8861572265625001,9.81,-5.1580810546875,-0.428466796875,109.3963623046875,0.0,0.0,0,0.0,0.0,0.0,0.0,0.0,0.0,0.0 
1714019182.9885874,0.0,0.0,0.0,0.392953125,0.48459375,-1.5625e-05,0.0622705078125,-0.8861572265625001,9.7956298828125,-5.152587890625,-0.4229736328125,109.3963623046875,0.0,0.0,0,0.0,0.0,0.0,0.0,0.0,0.0,0.0 
1714019183.802762,0.0,0.0,0.0,0.392953125,0.48459375,-1.5625e-05,0.076640625,-0.8813671875000001,9.81,-5.152587890625,-0.4229736328125,109.3963623046875,0.0,0.0,0,0.0,0.0,0.0,0.0,0.0,0.0,0.0 
1714019183.870805,0.0,0.0,0.0,0.392953125,0.48459375,-1.5625e-05,0.0718505859375,-0.8861572265625001,9.800419921875001,-5.1580810546875,-0.4229736328125,109.3963623046875,0.0,0.0,0,0.0,0.0,0.0,0.0,0.0,0.0,0.0 
1714019183.9388702,0.0,0.0,0.0,0.392953125,0.48459375,-1.5625e-05,0.076640625,-0.8765771484375,9.8052099609375,-5.1580810546875,-0.4229736328125,109.3963623046875,0.0,0.0,0,0.0,0.0,0.0,0.0,0.0,0.0,0.0 
1714019184.006911,0.0,0.0,0.0,0.392953125,0.48459375,-1.5625e-05,0.076640625,-0.890947265625,9.7956298828125,-5.1580810546875,-0.4229736328125,109.3963623046875,0.0,0.0,0,0.0,0.0,0.0,0.0,0.0,0.0,0.0 
1714019184.0749586,0.0,0.0,0.0,0.392953125,0.48459375,-1.5625e-05,0.076640625,-0.8813671875000001,9.8052099609375,-5.1580810546875,-0.4229736328125,109.3963623046875,0.0,0.0,0,0.0,0.0,0.0,0.0,0.0,0.0,0.0 
1714019184.1429935,0.0,0.0,0.0,0.392953125,0.48459375,-1.5625e-05,0.0718505859375,-0.8861572265625001,9.800419921875001,-5.1580810546875,-0.4229736328125,109.3963623046875,0.0,0.0,0,0.0,0.0,0.0,0.0,0.0,0.0,0.0 
1714019184.2110355,0.0,0.0,0.0,0.392953125,0.48459375,-1.5625e-05,0.067060546875,-0.8813671875000001,9.800419921875001,-5.1580810546875,-0.4229736328125,109.3963623046875,0.0,0.0,0,0.0,0.0,0.0,0.0,0.0,0.0,0.0 
1714019184.279087,0.0,0.0,0.0,0.392953125,0.48459375,-1.5625e-05,0.0718505859375,-0.890947265625,9.7956298828125,-5.1580810546875,-0.4229736328125,109.3963623046875,0.0,0.0,0,0.0,0.0,0.0,0.0,0.0,0.0,0.0 
1714019184.347122,0.0,0.0,0.0,0.392953125,0.48459375,-1.5625e-05,0.067060546875,-0.8765771484375,9.800419921875001,-5.1580810546875,-0.4229736328125,109.3963623046875,0.0,0.0,0,0.0,0.0,0.0,0.0,0.0,0.0,0.0 
1714019184.415159,0.0,0.0,0.0,0.393,0.48459375,0.0,0.0718505859375,-0.8813671875000001,9.800419921875001,-5.1580810546875,-0.4229736328125,109.3963623046875,0.0,0.0,0,0.0,0.0,0.0,0.0,0.0,0.0,0.0 
1714019185.2286737,0.0,0.0,0.0,0.393,0.48459375,0.0,0.0718505859375,-0.8813671875000001,9.79083984375,-5.1580810546875,-0.4229736328125,109.3963623046875,0.0,0.0,0,0.0,0.0,0.0,0.0,0.0,0.0,0.0 
1714019185.2967257,0.0,0.0,0.0,0.393,0.48459375,0.0,0.067060546875,-0.8813671875000001,9.8052099609375,-5.1580810546875,-0.4229736328125,109.3963623046875,0.0,0.0,0,0.0,0.0,0.0,0.0,0.0,0.0,0.0 
1714019185.3647633,0.0,0.0,0.0,0.393,0.48459375,0.0,0.067060546875,-0.8765771484375,9.800419921875001,-5.1580810546875,-0.4229736328125,109.3963623046875,0.0,0.0,0,0.0,0.0,0.0,0.0,0.0,0.0,0.0 
1714019185.4328084,0.0,0.0,0.0,0.393,0.48459375,0.0,0.067060546875,-0.8861572265625001,9.800419921875001,-5.1580810546875,-0.4229736328125,109.3963623046875,0.0,0.0,0,0.0,0.0,0.0,0.0,0.0,0.0,0.0 
1714019185.5008469,0.0,0.0,0.0,0.393,0.48459375,0.0,0.0718505859375,-0.8813671875000001,9.7956298828125,-5.1580810546875,-0.4229736328125,109.3963623046875,0.0,0.0,0,0.0,0.0,0.0,0.0,0.0,0.0,0.0 
1714019185.568886,0.0,0.0,0.0,0.393,0.48459375,0.0,0.067060546875,-0.8765771484375,9.800419921875001,-5.1580810546875,-0.4229736328125,109.3963623046875,0.0,0.0,0,0.0,0.0,0.0,0.0,0.0,0.0,0.0 
1714019185.6369221,0.0,0.0,0.0,0.393,0.48459375,0.0,0.0718505859375,-0.8813671875000001,9.800419921875001,-5.1580810546875,-0.4229736328125,109.3963623046875,0.0,0.0,0,0.0,0.0,0.0,0.0,0.0,0.0,0.0 
1714019185.704975,0.0,0.0,0.0,0.393,0.48459375,0.0,0.076640625,-0.8861572265625001,9.800419921875001,-5.1580810546875,-0.4229736328125,109.3963623046875,0.0,0.0,0,0.0,0.0,0.0,0.0,0.0,0.0,0.0 
1714019185.7730057,0.0,0.0,0.0,0.393,0.48459375,0.0,0.0622705078125,-0.8813671875000001,9.7956298828125,-5.1580810546875,-0.4229736328125,109.3963623046875,0.0,0.0,0,0.0,0.0,0.0,0.0,0.0,0.0,0.0 
1714019185.8410587,0.0,0.0,0.0,0.392984375,0.48459375,3.125e-05,0.0718505859375,-0.8861572265625001,9.800419921875001,-5.152587890625,-0.428466796875,109.3963623046875,0.0,0.0,0,0.0,0.0,0.0,0.0,0.0,0.0,0.0 
1714019186.6545367,0.0,0.0,0.0,0.392984375,0.48459375,3.125e-05,0.067060546875,-0.8813671875000001,9.800419921875001,-5.152587890625,-0.4229736328125,109.3963623046875,0.0,0.0,0,0.0,0.0,0.0,0.0,0.0,0.0,0.0 
1714019186.7225945,0.0,0.0,0.0,0.392984375,0.48459375,3.125e-05,0.0718505859375,-0.8765771484375,9.800419921875001,-5.152587890625,-0.4229736328125,109.3963623046875,0.0,0.0,0,0.0,0.0,0.0,0.0,0.0,0.0,0.0 
1714019186.7906494,0.0,0.0,0.0,0.392984375,0.48459375,3.125e-05,0.067060546875,-0.8861572265625001,9.8052099609375,-5.152587890625,-0.4229736328125,109.3963623046875,0.0,0.0,0,0.0,0.0,0.0,0.0,0.0,0.0,0.0 
1714019186.8587067,0.0,0.0,0.0,0.392984375,0.48459375,3.125e-05,0.067060546875,-0.8813671875000001,9.800419921875001,-5.152587890625,-0.4229736328125,109.3963623046875,0.0,0.0,0,0.0,0.0,0.0,0.0,0.0,0.0,0.0 
1714019186.9267902,0.0,0.0,0.0,0.392984375,0.48459375,3.125e-05,0.0622705078125,-0.8813671875000001,9.8052099609375,-5.152587890625,-0.4229736328125,109.3963623046875,0.0,0.0,0,0.0,0.0,0.0,0.0,0.0,0.0,0.0 
1714019186.9948554,0.0,0.0,0.0,0.392984375,0.48459375,3.125e-05,0.0718505859375,-0.8813671875000001,9.800419921875001,-5.1580810546875,-0.4229736328125,109.3963623046875,0.0,0.0,0,0.0,0.0,0.0,0.0,0.0,0.0,0.0 
1714019187.0629346,0.0,0.0,0.0,0.392984375,0.48459375,3.125e-05,0.067060546875,-0.8861572265625001,9.81,-5.1580810546875,-0.4229736328125,109.3963623046875,0.0,0.0,0,0.0,0.0,0.0,0.0,0.0,0.0,0.0 
1714019187.1309812,0.0,0.0,0.0,0.392984375,0.48459375,3.125e-05,0.0718505859375,-0.8813671875000001,9.800419921875001,-5.1580810546875,-0.4229736328125,109.3963623046875,0.0,0.0,0,0.0,0.0,0.0,0.0,0.0,0.0,0.0 
1714019187.1990447,0.0,0.0,0.0,0.392984375,0.48459375,3.125e-05,0.076640625,-0.8861572265625001,9.800419921875001,-5.1580810546875,-0.4229736328125,109.3963623046875,0.0,0.0,0,0.0,0.0,0.0,0.0,0.0,0.0,0.0 
1714019187.2671127,0.0,0.0,0.0,0.39296875000000003,0.48459375,1.5625e-05,0.076640625,-0.890947265625,9.814790039062501,-5.152587890625,-0.428466796875,109.3963623046875,0.0,0.0,0,0.0,0.0,0.0,0.0,0.0,0.0,0.0 
1714019188.0817623,0.0,0.0,0.0,0.39296875000000003,0.48459375,1.5625e-05,0.0718505859375,-0.8861572265625001,9.8052099609375,-5.152587890625,-0.428466796875,109.3963623046875,0.0,0.0,0,0.0,0.0,0.0,0.0,0.0,0.0,0.0 
1714019188.1498275,0.0,0.0,0.0,0.39296875000000003,0.48459375,1.5625e-05,0.0718505859375,-0.8813671875000001,9.800419921875001,-5.152587890625,-0.428466796875,109.3963623046875,0.0,0.0,0,0.0,0.0,0.0,0.0,0.0,0.0,0.0 
1714019188.217891,0.0,0.0,0.0,0.39296875000000003,0.48459375,1.5625e-05,0.0718505859375,-0.8813671875000001,9.8052099609375,-5.152587890625,-0.428466796875,109.3963623046875,0.0,0.0,0,0.0,0.0,0.0,0.0,0.0,0.0,0.0 
1714019188.2859175,0.0,0.0,0.0,0.39296875000000003,0.48459375,1.5625e-05,0.076640625,-0.8813671875000001,9.8052099609375,-5.152587890625,-0.428466796875,109.3963623046875,0.0,0.0,0,0.0,0.0,0.0,0.0,0.0,0.0,0.0 
1714019188.3539662,0.0,0.0,0.0,0.39296875000000003,0.48459375,1.5625e-05,0.076640625,-0.8861572265625001,9.8052099609375,-5.152587890625,-0.428466796875,109.3963623046875,0.0,0.0,0,0.0,0.0,0.0,0.0,0.0,0.0,0.0 
1714019188.4220133,0.0,0.0,0.0,0.39296875000000003,0.48459375,1.5625e-05,0.0718505859375,-0.8813671875000001,9.800419921875001,-5.1580810546875,-0.4339599609375,109.3963623046875,0.0,0.0,0,0.0,0.0,0.0,0.0,0.0,0.0,0.0 
1714019188.4900649,0.0,0.0,0.0,0.39296875000000003,0.48459375,1.5625e-05,0.0718505859375,-0.890947265625,9.81,-5.1580810546875,-0.4339599609375,109.3963623046875,0.0,0.0,0,0.0,0.0,0.0,0.0,0.0,0.0,0.0 
1714019188.5581534,0.0,0.0,0.0,0.39296875000000003,0.48459375,1.5625e-05,0.0718505859375,-0.8861572265625001,9.8052099609375,-5.1580810546875,-0.4339599609375,109.3963623046875,0.0,0.0,0,0.0,0.0,0.0,0.0,0.0,0.0,0.0 
1714019188.6261916,0.0,0.0,0.0,0.39296875000000003,0.48459375,1.5625e-05,0.067060546875,-0.8765771484375,9.7956298828125,-5.1580810546875,-0.4339599609375,109.3963623046875,0.0,0.0,0,0.0,0.0,0.0,0.0,0.0,0.0,0.0 
1714019188.694261,0.0,0.0,0.0,0.39296875000000003,0.48459375,-1.5625e-05,0.067060546875,-0.8813671875000001,9.7956298828125,-5.1580810546875,-0.4339599609375,109.3963623046875,0.0,0.0,0,0.0,0.0,0.0,0.0,0.0,0.0,0.0 
1714019189.508779,0.0,0.0,0.0,0.39296875000000003,0.48459375,-1.5625e-05,0.0718505859375,-0.8813671875000001,9.8052099609375,-5.1580810546875,-0.4339599609375,109.3963623046875,0.0,0.0,0,0.0,0.0,0.0,0.0,0.0,0.0,0.0 
1714019189.5768669,0.0,0.0,0.0,0.39296875000000003,0.48459375,-1.5625e-05,0.067060546875,-0.8813671875000001,9.8052099609375,-5.1580810546875,-0.4339599609375,109.3963623046875,0.0,0.0,0,0.0,0.0,0.0,0.0,0.0,0.0,0.0 
1714019189.6449459,0.0,0.0,0.0,0.39296875000000003,0.48459375,-1.5625e-05,0.0718505859375,-0.8813671875000001,9.800419921875001,-5.1580810546875,-0.4339599609375,109.3963623046875,0.0,0.0,0,0.0,0.0,0.0,0.0,0.0,0.0,0.0 
1714019189.7130313,0.0,0.0,0.0,0.39296875000000003,0.48459375,-1.5625e-05,0.0718505859375,-0.8861572265625001,9.800419921875001,-5.1580810546875,-0.4339599609375,109.3963623046875,0.0,0.0,0,0.0,0.0,0.0,0.0,0.0,0.0,0.0 
1714019189.7810807,0.0,0.0,0.0,0.39296875000000003,0.48459375,-1.5625e-05,0.067060546875,-0.8813671875000001,9.800419921875001,-5.1580810546875,-0.4339599609375,109.3963623046875,0.0,0.0,0,0.0,0.0,0.0,0.0,0.0,0.0,0.0 
1714019189.849134,0.0,0.0,0.0,0.39296875000000003,0.48459375,-1.5625e-05,0.0718505859375,-0.8765771484375,9.800419921875001,-5.1580810546875,-0.4339599609375,109.3963623046875,0.0,0.0,0,0.0,0.0,0.0,0.0,0.0,0.0,0.0 
1714019189.9172,0.0,0.0,0.0,0.39296875000000003,0.48459375,-1.5625e-05,0.067060546875,-0.8861572265625001,9.800419921875001,-5.1580810546875,-0.4339599609375,109.3963623046875,0.0,0.0,0,0.0,0.0,0.0,0.0,0.0,0.0,0.0 
1714019189.9852836,0.0,0.0,0.0,0.39296875000000003,0.48459375,-1.5625e-05,0.0814306640625,-0.890947265625,9.79083984375,-5.1580810546875,-0.4339599609375,109.3963623046875,0.0,0.0,0,0.0,0.0,0.0,0.0,0.0,0.0,0.0 
1714019190.053354,0.0,0.0,0.0,0.39296875000000003,0.48459375,-1.5625e-05,0.0622705078125,-0.8861572265625001,9.81,-5.1580810546875,-0.4339599609375,109.3963623046875,0.0,0.0,0,0.0,0.0,0.0,0.0,0.0,0.0,0.0 
1714019190.12138,0.0,0.0,0.0,0.3929375,0.48459375,-1.5625e-05,0.067060546875,-0.8813671875000001,9.8052099609375,-5.16357421875,-0.4339599609375,109.3963623046875,0.0,0.0,0,0.0,0.0,0.0,0.0,0.0,0.0,0.0 
1714019190.9359598,0.0,0.0,0.0,0.3929375,0.48459375,-1.5625e-05,0.076640625,-0.8813671875000001,9.8052099609375,-5.16357421875,-0.4339599609375,109.3963623046875,0.0,0.0,0,0.0,0.0,0.0,0.0,0.0,0.0,0.0 
1714019191.0040374,0.0,0.0,0.0,0.3929375,0.48459375,-1.5625e-05,0.076640625,-0.890947265625,9.800419921875001,-5.16357421875,-0.4339599609375,109.3963623046875,0.0,0.0,0,0.0,0.0,0.0,0.0,0.0,0.0,0.0 
1714019191.0720959,0.0,0.0,0.0,0.3929375,0.48459375,-1.5625e-05,0.076640625,-0.8813671875000001,9.8052099609375,-5.16357421875,-0.4339599609375,109.3963623046875,0.0,0.0,0,0.0,0.0,0.0,0.0,0.0,0.0,0.0 
1714019191.1401906,0.0,0.0,0.0,0.3929375,0.48459375,-1.5625e-05,0.0718505859375,-0.8813671875000001,9.7956298828125,-5.16357421875,-0.4339599609375,109.3963623046875,0.0,0.0,0,0.0,0.0,0.0,0.0,0.0,0.0,0.0 
1714019191.2082403,0.0,0.0,0.0,0.3929375,0.48459375,-1.5625e-05,0.076640625,-0.8813671875000001,9.81,-5.16357421875,-0.4339599609375,109.3963623046875,0.0,0.0,0,0.0,0.0,0.0,0.0,0.0,0.0,0.0 
1714019191.2762988,0.0,0.0,0.0,0.3929375,0.48459375,-1.5625e-05,0.076640625,-0.8861572265625001,9.8052099609375,-5.16357421875,-0.4339599609375,109.3963623046875,0.0,0.0,0,0.0,0.0,0.0,0.0,0.0,0.0,0.0 
1714019191.3443367,0.0,0.0,0.0,0.3929375,0.48459375,-1.5625e-05,0.0718505859375,-0.8813671875000001,9.800419921875001,-5.16357421875,-0.4339599609375,109.3963623046875,0.0,0.0,0,0.0,0.0,0.0,0.0,0.0,0.0,0.0 
1714019191.4123797,0.0,0.0,0.0,0.3929375,0.48459375,-1.5625e-05,0.067060546875,-0.8861572265625001,9.800419921875001,-5.16357421875,-0.4339599609375,109.3963623046875,0.0,0.0,0,0.0,0.0,0.0,0.0,0.0,0.0,0.0 
1714019191.4804504,0.0,0.0,0.0,0.3929375,0.48459375,-1.5625e-05,0.0718505859375,-0.8813671875000001,9.8052099609375,-5.16357421875,-0.4339599609375,109.3963623046875,0.0,0.0,0,0.0,0.0,0.0,0.0,0.0,0.0,0.0 
1714019191.5485094,0.0,0.0,0.0,0.392953125,0.48459375,-1.5625e-05,0.067060546875,-0.8813671875000001,9.8052099609375,-5.16357421875,-0.439453125,109.3963623046875,0.0,0.0,0,0.0,0.0,0.0,0.0,0.0,0.0,0.0 
1714019192.3631868,0.0,0.0,0.0,0.392953125,0.48459375,-1.5625e-05,0.0622705078125,-0.8813671875000001,9.7956298828125,-5.16357421875,-0.439453125,109.3963623046875,0.0,0.0,0,0.0,0.0,0.0,0.0,0.0,0.0,0.0 
1714019192.431261,0.0,0.0,0.0,0.392953125,0.48459375,-1.5625e-05,0.0814306640625,-0.8861572265625001,9.800419921875001,-5.16357421875,-0.439453125,109.3963623046875,0.0,0.0,0,0.0,0.0,0.0,0.0,0.0,0.0,0.0 
1714019192.4993098,0.0,0.0,0.0,0.392953125,0.48459375,-1.5625e-05,0.076640625,-0.890947265625,9.800419921875001,-5.16357421875,-0.439453125,109.3963623046875,0.0,0.0,0,0.0,0.0,0.0,0.0,0.0,0.0,0.0 
1714019192.5673769,0.0,0.0,0.0,0.392953125,0.48459375,-1.5625e-05,0.076640625,-0.8813671875000001,9.800419921875001,-5.16357421875,-0.439453125,109.3963623046875,0.0,0.0,0,0.0,0.0,0.0,0.0,0.0,0.0,0.0 
1714019192.6354427,0.0,0.0,0.0,0.392953125,0.48459375,-1.5625e-05,0.0718505859375,-0.890947265625,9.79083984375,-5.16357421875,-0.439453125,109.3963623046875,0.0,0.0,0,0.0,0.0,0.0,0.0,0.0,0.0,0.0 
1714019192.703487,0.0,0.0,0.0,0.392953125,0.48459375,-1.5625e-05,0.076640625,-0.8861572265625001,9.7956298828125,-5.16357421875,-0.439453125,109.3963623046875,0.0,0.0,0,0.0,0.0,0.0,0.0,0.0,0.0,0.0 
1714019192.7715478,0.0,0.0,0.0,0.392953125,0.48459375,-1.5625e-05,0.0814306640625,-0.8861572265625001,9.7956298828125,-5.16357421875,-0.439453125,109.3963623046875,0.0,0.0,0,0.0,0.0,0.0,0.0,0.0,0.0,0.0 
1714019192.8396008,0.0,0.0,0.0,0.392953125,0.48459375,-1.5625e-05,0.0718505859375,-0.8813671875000001,9.800419921875001,-5.16357421875,-0.439453125,109.3963623046875,0.0,0.0,0,0.0,0.0,0.0,0.0,0.0,0.0,0.0 
1714019192.90763,0.0,0.0,0.0,0.392953125,0.48459375,-1.5625e-05,0.0718505859375,-0.8813671875000001,9.8052099609375,-5.16357421875,-0.439453125,109.3963623046875,0.0,0.0,0,0.0,0.0,0.0,0.0,0.0,0.0,0.0 
1714019192.9756649,0.0,0.0,0.0,0.392953125,0.48459375,-3.125e-05,0.076640625,-0.8861572265625001,9.7956298828125,-5.16357421875,-0.439453125,109.3963623046875,0.0,0.0,0,0.0,0.0,0.0,0.0,0.0,0.0,0.0 
1714019193.7897904,0.0,0.0,0.0,0.392953125,0.48459375,-3.125e-05,0.0718505859375,-0.8861572265625001,9.800419921875001,-5.16357421875,-0.439453125,109.3963623046875,0.0,0.0,0,0.0,0.0,0.0,0.0,0.0,0.0,0.0 
1714019193.857887,0.0,0.0,0.0,0.392953125,0.48459375,-3.125e-05,0.0718505859375,-0.8765771484375,9.800419921875001,-5.16357421875,-0.439453125,109.3963623046875,0.0,0.0,0,0.0,0.0,0.0,0.0,0.0,0.0,0.0 
1714019193.9259682,0.0,0.0,0.0,0.392953125,0.48459375,-3.125e-05,0.067060546875,-0.8765771484375,9.7956298828125,-5.16357421875,-0.439453125,109.3963623046875,0.0,0.0,0,0.0,0.0,0.0,0.0,0.0,0.0,0.0 
1714019193.9940162,0.0,0.0,0.0,0.392953125,0.48459375,-3.125e-05,0.0718505859375,-0.8813671875000001,9.800419921875001,-5.16357421875,-0.439453125,109.3963623046875,0.0,0.0,0,0.0,0.0,0.0,0.0,0.0,0.0,0.0 
1714019194.062072,0.0,0.0,0.0,0.392953125,0.48459375,-3.125e-05,0.076640625,-0.8861572265625001,9.800419921875001,-5.16357421875,-0.439453125,109.3963623046875,0.0,0.0,0,0.0,0.0,0.0,0.0,0.0,0.0,0.0 
1714019194.1301696,0.0,0.0,0.0,0.392953125,0.48459375,-3.125e-05,0.0718505859375,-0.8813671875000001,9.800419921875001,-5.16357421875,-0.439453125,109.3963623046875,0.0,0.0,0,0.0,0.0,0.0,0.0,0.0,0.0,0.0 
1714019194.1982043,0.0,0.0,0.0,0.392953125,0.48459375,-3.125e-05,0.076640625,-0.8861572265625001,9.800419921875001,-5.16357421875,-0.439453125,109.3963623046875,0.0,0.0,0,0.0,0.0,0.0,0.0,0.0,0.0,0.0 
1714019194.2662883,0.0,0.0,0.0,0.392953125,0.48459375,-3.125e-05,0.0718505859375,-0.8765771484375,9.800419921875001,-5.16357421875,-0.439453125,109.3963623046875,0.0,0.0,0,0.0,0.0,0.0,0.0,0.0,0.0,0.0 
1714019194.3343544,0.0,0.0,0.0,0.392953125,0.48459375,-3.125e-05,0.0718505859375,-0.8813671875000001,9.8052099609375,-5.16357421875,-0.439453125,109.3963623046875,0.0,0.0,0,0.0,0.0,0.0,0.0,0.0,0.0,0.0 
1714019194.4024162,0.0,0.0,0.0,0.392984375,0.48459375,-1.5625e-05,0.076640625,-0.8861572265625001,9.800419921875001,-5.1580810546875,-0.439453125,109.3963623046875,0.0,0.0,0,0.0,0.0,0.0,0.0,0.0,0.0,0.0 
1714019195.2168946,0.0,0.0,0.0,0.392984375,0.48459375,-1.5625e-05,0.0718505859375,-0.890947265625,9.8052099609375,-5.1580810546875,-0.439453125,109.3963623046875,0.0,0.0,0,0.0,0.0,0.0,0.0,0.0,0.0,0.0 
1714019195.28494,0.0,0.0,0.0,0.392984375,0.48459375,-1.5625e-05,0.0718505859375,-0.890947265625,9.800419921875001,-5.1580810546875,-0.439453125,109.3963623046875,0.0,0.0,0,0.0,0.0,0.0,0.0,0.0,0.0,0.0 
1714019195.353001,0.0,0.0,0.0,0.392984375,0.48459375,-1.5625e-05,0.0718505859375,-0.890947265625,9.81,-5.1580810546875,-0.439453125,109.3963623046875,0.0,0.0,0,0.0,0.0,0.0,0.0,0.0,0.0,0.0 
1714019195.421064,0.0,0.0,0.0,0.392984375,0.48459375,-1.5625e-05,0.076640625,-0.8861572265625001,9.7956298828125,-5.1580810546875,-0.439453125,109.3963623046875,0.0,0.0,0,0.0,0.0,0.0,0.0,0.0,0.0,0.0 
1714019195.4891238,0.0,0.0,0.0,0.392984375,0.48459375,-1.5625e-05,0.0718505859375,-0.8813671875000001,9.79083984375,-5.16357421875,-0.439453125,109.3963623046875,0.0,0.0,0,0.0,0.0,0.0,0.0,0.0,0.0,0.0 
1714019195.5571983,0.0,0.0,0.0,0.392984375,0.48459375,-1.5625e-05,0.0718505859375,-0.8813671875000001,9.800419921875001,-5.16357421875,-0.439453125,109.3963623046875,0.0,0.0,0,0.0,0.0,0.0,0.0,0.0,0.0,0.0 
1714019195.6252477,0.0,0.0,0.0,0.392984375,0.48459375,-1.5625e-05,0.076640625,-0.8813671875000001,9.8052099609375,-5.16357421875,-0.439453125,109.3963623046875,0.0,0.0,0,0.0,0.0,0.0,0.0,0.0,0.0,0.0 
1714019195.6933186,0.0,0.0,0.0,0.392984375,0.48459375,-1.5625e-05,0.067060546875,-0.8861572265625001,9.800419921875001,-5.16357421875,-0.439453125,109.3963623046875,0.0,0.0,0,0.0,0.0,0.0,0.0,0.0,0.0,0.0 
1714019195.7613907,0.0,0.0,0.0,0.392984375,0.48459375,-1.5625e-05,0.076640625,-0.8861572265625001,9.800419921875001,-5.16357421875,-0.439453125,109.3963623046875,0.0,0.0,0,0.0,0.0,0.0,0.0,0.0,0.0,0.0 
1714019195.8294654,0.0,0.0,0.0,0.392984375,0.484578125,1.5625e-05,0.076640625,-0.8861572265625001,9.8052099609375,-5.16357421875,-0.439453125,109.3963623046875,0.0,0.0,0,0.0,0.0,0.0,0.0,0.0,0.0,0.0 
1714019196.6439865,0.0,0.0,0.0,0.392984375,0.484578125,1.5625e-05,0.0718505859375,-0.8813671875000001,9.7956298828125,-5.16357421875,-0.439453125,109.3963623046875,0.0,0.0,0,0.0,0.0,0.0,0.0,0.0,0.0,0.0 
1714019196.7120414,0.0,0.0,0.0,0.392984375,0.484578125,1.5625e-05,0.076640625,-0.8861572265625001,9.8052099609375,-5.16357421875,-0.439453125,109.3963623046875,0.0,0.0,0,0.0,0.0,0.0,0.0,0.0,0.0,0.0 
1714019196.780093,0.0,0.0,0.0,0.392984375,0.484578125,1.5625e-05,0.076640625,-0.890947265625,9.800419921875001,-5.16357421875,-0.439453125,109.3963623046875,0.0,0.0,0,0.0,0.0,0.0,0.0,0.0,0.0,0.0 
1714019196.8481445,0.0,0.0,0.0,0.392984375,0.484578125,1.5625e-05,0.0718505859375,-0.8813671875000001,9.800419921875001,-5.16357421875,-0.439453125,109.3963623046875,0.0,0.0,0,0.0,0.0,0.0,0.0,0.0,0.0,0.0 
1714019196.9162128,0.0,0.0,0.0,0.392984375,0.484578125,1.5625e-05,0.0718505859375,-0.8813671875000001,9.800419921875001,-5.16357421875,-0.439453125,109.3963623046875,0.0,0.0,0,0.0,0.0,0.0,0.0,0.0,0.0,0.0 
1714019196.9842913,0.0,0.0,0.0,0.392984375,0.484578125,1.5625e-05,0.0718505859375,-0.8765771484375,9.8052099609375,-5.16357421875,-0.439453125,109.3963623046875,0.0,0.0,0,0.0,0.0,0.0,0.0,0.0,0.0,0.0 
1714019197.052383,0.0,0.0,0.0,0.392984375,0.484578125,1.5625e-05,0.086220703125,-0.8765771484375,9.800419921875001,-5.16357421875,-0.439453125,109.3963623046875,0.0,0.0,0,0.0,0.0,0.0,0.0,0.0,0.0,0.0 
1714019197.1204321,0.0,0.0,0.0,0.392984375,0.484578125,1.5625e-05,0.076640625,-0.8861572265625001,9.800419921875001,-5.16357421875,-0.439453125,109.3963623046875,0.0,0.0,0,0.0,0.0,0.0,0.0,0.0,0.0,0.0 
1714019197.188487,0.0,0.0,0.0,0.392984375,0.484578125,1.5625e-05,0.076640625,-0.8813671875000001,9.8052099609375,-5.16357421875,-0.439453125,109.3963623046875,0.0,0.0,0,0.0,0.0,0.0,0.0,0.0,0.0,0.0 
1714019197.2565527,0.0,0.0,0.0,0.39296875000000003,0.484578125,0.0,0.076640625,-0.8813671875000001,9.8052099609375,-5.16357421875,-0.4449462890625,109.3963623046875,0.0,0.0,0,0.0,0.0,0.0,0.0,0.0,0.0,0.0 
1714019198.070666,0.0,0.0,0.0,0.39296875000000003,0.484578125,0.0,0.0718505859375,-0.8813671875000001,9.800419921875001,-5.16357421875,-0.439453125,109.3963623046875,0.0,0.0,0,0.0,0.0,0.0,0.0,0.0,0.0,0.0 
1714019198.1387203,0.0,0.0,0.0,0.39296875000000003,0.484578125,0.0,0.0814306640625,-0.8861572265625001,9.81,-5.16357421875,-0.439453125,109.3963623046875,0.0,0.0,0,0.0,0.0,0.0,0.0,0.0,0.0,0.0 
1714019198.2067394,0.0,0.0,0.0,0.39296875000000003,0.484578125,0.0,0.076640625,-0.8813671875000001,9.800419921875001,-5.16357421875,-0.439453125,109.3963623046875,0.0,0.0,0,0.0,0.0,0.0,0.0,0.0,0.0,0.0 
1714019198.2747815,0.0,0.0,0.0,0.39296875000000003,0.484578125,0.0,0.076640625,-0.8765771484375,9.800419921875001,-5.16357421875,-0.439453125,109.3963623046875,0.0,0.0,0,0.0,0.0,0.0,0.0,0.0,0.0,0.0 
1714019198.342807,0.0,0.0,0.0,0.39296875000000003,0.484578125,0.0,0.067060546875,-0.8813671875000001,9.800419921875001,-5.16357421875,-0.439453125,109.3963623046875,0.0,0.0,0,0.0,0.0,0.0,0.0,0.0,0.0,0.0 
1714019198.410841,0.0,0.0,0.0,0.39296875000000003,0.484578125,0.0,0.076640625,-0.8813671875000001,9.8052099609375,-5.16357421875,-0.439453125,109.3963623046875,0.0,0.0,0,0.0,0.0,0.0,0.0,0.0,0.0,0.0 
1714019198.4788866,0.0,0.0,0.0,0.39296875000000003,0.484578125,0.0,0.0718505859375,-0.8813671875000001,9.7956298828125,-5.16357421875,-0.4449462890625,109.3963623046875,0.0,0.0,0,0.0,0.0,0.0,0.0,0.0,0.0,0.0 
1714019198.5469036,0.0,0.0,0.0,0.39296875000000003,0.484578125,0.0,0.067060546875,-0.8861572265625001,9.7956298828125,-5.16357421875,-0.4449462890625,109.3963623046875,0.0,0.0,0,0.0,0.0,0.0,0.0,0.0,0.0,0.0 
1714019198.614929,0.0,0.0,0.0,0.39296875000000003,0.484578125,0.0,0.0622705078125,-0.8765771484375,9.7956298828125,-5.16357421875,-0.4449462890625,109.3963623046875,0.0,0.0,0,0.0,0.0,0.0,0.0,0.0,0.0,0.0 
1714019198.68297,0.0,0.0,0.0,0.392953125,0.48459375,-1.5625e-05,0.076640625,-0.8861572265625001,9.800419921875001,-5.16357421875,-0.439453125,109.3963623046875,0.0,0.0,0,0.0,0.0,0.0,0.0,0.0,0.0,0.0 
1714019199.4968853,0.0,0.0,0.0,0.392953125,0.48459375,-1.5625e-05,0.067060546875,-0.8813671875000001,9.7956298828125,-5.16357421875,-0.439453125,109.3963623046875,0.0,0.0,0,0.0,0.0,0.0,0.0,0.0,0.0,0.0 
1714019199.5649257,0.0,0.0,0.0,0.392953125,0.48459375,-1.5625e-05,0.076640625,-0.8861572265625001,9.81,-5.16357421875,-0.439453125,109.3963623046875,0.0,0.0,0,0.0,0.0,0.0,0.0,0.0,0.0,0.0 
1714019199.632974,0.0,0.0,0.0,0.392953125,0.48459375,-1.5625e-05,0.0814306640625,-0.8861572265625001,9.800419921875001,-5.16357421875,-0.439453125,109.3963623046875,0.0,0.0,0,0.0,0.0,0.0,0.0,0.0,0.0,0.0 
1714019199.701001,0.0,0.0,0.0,0.392953125,0.48459375,-1.5625e-05,0.0718505859375,-0.8813671875000001,9.7956298828125,-5.16357421875,-0.439453125,109.3963623046875,0.0,0.0,0,0.0,0.0,0.0,0.0,0.0,0.0,0.0 
1714019199.769038,0.0,0.0,0.0,0.392953125,0.48459375,-1.5625e-05,0.067060546875,-0.8813671875000001,9.800419921875001,-5.16357421875,-0.439453125,109.3963623046875,0.0,0.0,0,0.0,0.0,0.0,0.0,0.0,0.0,0.0 
1714019199.837057,0.0,0.0,0.0,0.392953125,0.48459375,-1.5625e-05,0.0718505859375,-0.890947265625,9.8052099609375,-5.16357421875,-0.439453125,109.3963623046875,0.0,0.0,0,0.0,0.0,0.0,0.0,0.0,0.0,0.0 
1714019199.9050891,0.0,0.0,0.0,0.392953125,0.48459375,-1.5625e-05,0.067060546875,-0.8861572265625001,9.800419921875001,-5.16357421875,-0.439453125,109.3963623046875,0.0,0.0,0,0.0,0.0,0.0,0.0,0.0,0.0,0.0 
1714019199.9731424,0.0,0.0,0.0,0.392953125,0.48459375,-1.5625e-05,0.0718505859375,-0.8765771484375,9.81,-5.16357421875,-0.439453125,109.3963623046875,0.0,0.0,0,0.0,0.0,0.0,0.0,0.0,0.0,0.0 
1714019200.0411913,0.0,0.0,0.0,0.392953125,0.48459375,-1.5625e-05,0.0718505859375,-0.8813671875000001,9.800419921875001,-5.16357421875,-0.439453125,109.3963623046875,0.0,0.0,0,0.0,0.0,0.0,0.0,0.0,0.0,0.0 
1714019200.1092227,0.0,0.0,0.0,0.39296875000000003,0.484578125,0.0,0.076640625,-0.8861572265625001,9.8052099609375,-5.16357421875,-0.439453125,109.3963623046875,0.0,0.0,0,0.0,0.0,0.0,0.0,0.0,0.0,0.0 
1714019200.9234812,0.0,0.0,0.0,0.39296875000000003,0.484578125,0.0,0.076640625,-0.8957373046875,9.800419921875001,-5.16357421875,-0.439453125,109.3963623046875,0.0,0.0,0,0.0,0.0,0.0,0.0,0.0,0.0,0.0 
1714019200.991513,0.0,0.0,0.0,0.39296875000000003,0.484578125,0.0,0.0718505859375,-0.8813671875000001,9.8052099609375,-5.16357421875,-0.439453125,109.3963623046875,0.0,0.0,0,0.0,0.0,0.0,0.0,0.0,0.0,0.0 
1714019201.0595512,0.0,0.0,0.0,0.39296875000000003,0.484578125,0.0,0.067060546875,-0.8813671875000001,9.800419921875001,-5.16357421875,-0.439453125,109.3963623046875,0.0,0.0,0,0.0,0.0,0.0,0.0,0.0,0.0,0.0 
1714019201.1275547,0.0,0.0,0.0,0.39296875000000003,0.484578125,0.0,0.0718505859375,-0.890947265625,9.800419921875001,-5.16357421875,-0.439453125,109.3963623046875,0.0,0.0,0,0.0,0.0,0.0,0.0,0.0,0.0,0.0 
1714019201.195613,0.0,0.0,0.0,0.39296875000000003,0.484578125,0.0,0.0814306640625,-0.8813671875000001,9.800419921875001,-5.16357421875,-0.439453125,109.3963623046875,0.0,0.0,0,0.0,0.0,0.0,0.0,0.0,0.0,0.0 
1714019201.2636325,0.0,0.0,0.0,0.39296875000000003,0.484578125,0.0,0.0718505859375,-0.8813671875000001,9.800419921875001,-5.16357421875,-0.439453125,109.3963623046875,0.0,0.0,0,0.0,0.0,0.0,0.0,0.0,0.0,0.0 
1714019201.331655,0.0,0.0,0.0,0.39296875000000003,0.484578125,0.0,0.076640625,-0.8861572265625001,9.8052099609375,-5.16357421875,-0.439453125,109.3963623046875,0.0,0.0,0,0.0,0.0,0.0,0.0,0.0,0.0,0.0 
1714019201.3996744,0.0,0.0,0.0,0.39296875000000003,0.484578125,0.0,0.076640625,-0.8861572265625001,9.800419921875001,-5.16357421875,-0.439453125,109.3963623046875,0.0,0.0,0,0.0,0.0,0.0,0.0,0.0,0.0,0.0 
1714019201.467693,0.0,0.0,0.0,0.39296875000000003,0.484578125,0.0,0.076640625,-0.8861572265625001,9.7956298828125,-5.16357421875,-0.439453125,109.3963623046875,0.0,0.0,0,0.0,0.0,0.0,0.0,0.0,0.0,0.0 
1714019201.5357242,0.0,0.0,0.0,0.392953125,0.484578125,0.0,0.0718505859375,-0.8861572265625001,9.7956298828125,-5.16357421875,-0.439453125,109.3963623046875,0.0,0.0,0,0.0,0.0,0.0,0.0,0.0,0.0,0.0 
1714019202.349837,0.0,0.0,0.0,0.392953125,0.484578125,0.0,0.076640625,-0.8861572265625001,9.800419921875001,-5.16357421875,-0.439453125,109.3963623046875,0.0,0.0,0,0.0,0.0,0.0,0.0,0.0,0.0,0.0 
1714019202.4178667,0.0,0.0,0.0,0.392953125,0.484578125,0.0,0.067060546875,-0.8765771484375,9.800419921875001,-5.16357421875,-0.439453125,109.3963623046875,0.0,0.0,0,0.0,0.0,0.0,0.0,0.0,0.0,0.0 
1714019202.4859095,0.0,0.0,0.0,0.392953125,0.484578125,0.0,0.0718505859375,-0.8813671875000001,9.800419921875001,-5.16357421875,-0.439453125,109.3963623046875,0.0,0.0,0,0.0,0.0,0.0,0.0,0.0,0.0,0.0 
1714019202.553931,0.0,0.0,0.0,0.392953125,0.484578125,0.0,0.0718505859375,-0.8861572265625001,9.800419921875001,-5.16357421875,-0.439453125,109.3963623046875,0.0,0.0,0,0.0,0.0,0.0,0.0,0.0,0.0,0.0 
1714019202.6219857,0.0,0.0,0.0,0.392953125,0.484578125,0.0,0.0718505859375,-0.8813671875000001,9.8052099609375,-5.16357421875,-0.439453125,109.3963623046875,0.0,0.0,0,0.0,0.0,0.0,0.0,0.0,0.0,0.0 
1714019202.6900275,0.0,0.0,0.0,0.392953125,0.484578125,0.0,0.0718505859375,-0.8765771484375,9.8052099609375,-5.16357421875,-0.439453125,109.3963623046875,0.0,0.0,0,0.0,0.0,0.0,0.0,0.0,0.0,0.0 
1714019202.7580655,0.0,0.0,0.0,0.392953125,0.484578125,0.0,0.067060546875,-0.890947265625,9.8052099609375,-5.16357421875,-0.439453125,109.3963623046875,0.0,0.0,0,0.0,0.0,0.0,0.0,0.0,0.0,0.0 
1714019202.8261106,0.0,0.0,0.0,0.392953125,0.484578125,0.0,0.0718505859375,-0.890947265625,9.8052099609375,-5.16357421875,-0.439453125,109.3963623046875,0.0,0.0,0,0.0,0.0,0.0,0.0,0.0,0.0,0.0 
1714019202.8941574,0.0,0.0,0.0,0.392953125,0.484578125,0.0,0.0718505859375,-0.8813671875000001,9.800419921875001,-5.16357421875,-0.439453125,109.3963623046875,0.0,0.0,0,0.0,0.0,0.0,0.0,0.0,0.0,0.0 
1714019202.9621978,0.0,0.0,0.0,0.39296875000000003,0.484578125,0.0,0.076640625,-0.8861572265625001,9.800419921875001,-5.1580810546875,-0.4339599609375,109.3963623046875,0.0,0.0,0,0.0,0.0,0.0,0.0,0.0,0.0,0.0 
1714019203.7765849,0.0,0.0,0.0,0.39296875000000003,0.484578125,0.0,0.067060546875,-0.8765771484375,9.800419921875001,-5.1580810546875,-0.4339599609375,109.3963623046875,0.0,0.0,0,0.0,0.0,0.0,0.0,0.0,0.0,0.0 
1714019203.8446162,0.0,0.0,0.0,0.39296875000000003,0.484578125,0.0,0.076640625,-0.8765771484375,9.81,-5.1580810546875,-0.4339599609375,109.3963623046875,0.0,0.0,0,0.0,0.0,0.0,0.0,0.0,0.0,0.0 
