time,cell0,cell1,cell2,cell3,cell4,cell5,acc_x,acc_y,acc_z,roll,pitch,yaw,latitude,longitude,satellites,velocity,rpm_lr,rpm_rr,rpm_lf,rpm_rf,steering,throttle 
1714023278.266409,0.0,0.0,0.0,0.38784375,0.47853125,-1.5625e-05,0.047900390625000004,-0.8957373046875,9.800419921875001,-5.2734375,-0.2911376953125,82.15576171875,0.0,0.0,0,0.0,0.0,0.0,0.0,0.0,0.0,0.0 
1714023279.077415,0.0,0.0,0.0,0.38784375,0.47853125,-1.5625e-05,0.047900390625000004,-0.910107421875,9.8052099609375,-5.2734375,-0.2911376953125,82.15576171875,0.0,0.0,0,0.0,0.0,0.0,0.0,0.0,0.0,0.0 
1714023279.1454496,0.0,0.0,0.0,0.38784375,0.47853125,-1.5625e-05,0.047900390625000004,-0.9005273437500001,9.800419921875001,-5.2734375,-0.2911376953125,82.15576171875,0.0,0.0,0,0.0,0.0,0.0,0.0,0.0,0.0,0.0 
1714023279.2134767,0.0,0.0,0.0,0.38784375,0.47853125,-1.5625e-05,0.052690429687500005,-0.9053173828125001,9.81,-5.2734375,-0.2911376953125,82.15576171875,0.0,0.0,0,0.0,0.0,0.0,0.0,0.0,0.0,0.0 
1714023279.2815082,0.0,0.0,0.0,0.38784375,0.47853125,-1.5625e-05,0.047900390625000004,-0.9053173828125001,9.8052099609375,-5.2734375,-0.2911376953125,82.15576171875,0.0,0.0,0,0.0,0.0,0.0,0.0,0.0,0.0,0.0 
1714023279.3495314,0.0,0.0,0.0,0.38784375,0.47853125,-1.5625e-05,0.0431103515625,-0.910107421875,9.800419921875001,-5.2734375,-0.2911376953125,82.15576171875,0.0,0.0,0,0.0,0.0,0.0,0.0,0.0,0.0,0.0 
1714023279.4175503,0.0,0.0,0.0,0.38784375,0.47853125,-1.5625e-05,0.0431103515625,-0.9053173828125001,9.800419921875001,-5.2734375,-0.2911376953125,82.15576171875,0.0,0.0,0,0.0,0.0,0.0,0.0,0.0,0.0,0.0 
1714023279.4855917,0.0,0.0,0.0,0.38784375,0.47853125,-1.5625e-05,0.052690429687500005,-0.9053173828125001,9.8052099609375,-5.2734375,-0.2911376953125,82.15576171875,0.0,0.0,0,0.0,0.0,0.0,0.0,0.0,0.0,0.0 
1714023279.5536206,0.0,0.0,0.0,0.38784375,0.47853125,-1.5625e-05,0.0431103515625,-0.9053173828125001,9.81,-5.2734375,-0.2911376953125,82.15576171875,0.0,0.0,0,0.0,0.0,0.0,0.0,0.0,0.0,0.0 
1714023279.6216466,0.0,0.0,0.0,0.38784375,0.47853125,-1.5625e-05,0.05748046875,-0.8957373046875,9.800419921875001,-5.2734375,-0.2911376953125,82.15576171875,0.0,0.0,0,0.0,0.0,0.0,0.0,0.0,0.0,0.0 
1714023279.6896715,0.0,0.0,0.0,0.38778125,0.47853125,0.0,0.052690429687500005,-0.9053173828125001,9.81,-5.2734375,-0.2911376953125,82.15576171875,0.0,0.0,0,0.0,0.0,0.0,0.0,0.0,0.0,0.0 
1714023280.5038426,0.0,0.0,0.0,0.38778125,0.47853125,0.0,0.047900390625000004,-0.8957373046875,9.8052099609375,-5.2734375,-0.2911376953125,82.15576171875,0.0,0.0,0,0.0,0.0,0.0,0.0,0.0,0.0,0.0 
1714023280.571876,0.0,0.0,0.0,0.38778125,0.47853125,0.0,0.052690429687500005,-0.9053173828125001,9.81,-5.2734375,-0.2911376953125,82.15576171875,0.0,0.0,0,0.0,0.0,0.0,0.0,0.0,0.0,0.0 
1714023280.6399012,0.0,0.0,0.0,0.38778125,0.47853125,0.0,0.047900390625000004,-0.9053173828125001,9.8052099609375,-5.2734375,-0.2911376953125,82.15576171875,0.0,0.0,0,0.0,0.0,0.0,0.0,0.0,0.0,0.0 
1714023280.7079184,0.0,0.0,0.0,0.38778125,0.47853125,0.0,0.052690429687500005,-0.8957373046875,9.800419921875001,-5.2734375,-0.2911376953125,82.15576171875,0.0,0.0,0,0.0,0.0,0.0,0.0,0.0,0.0,0.0 
1714023280.7759693,0.0,0.0,0.0,0.38778125,0.47853125,0.0,0.0431103515625,-0.910107421875,9.8052099609375,-5.2734375,-0.2911376953125,82.15576171875,0.0,0.0,0,0.0,0.0,0.0,0.0,0.0,0.0,0.0 
1714023280.843991,0.0,0.0,0.0,0.38778125,0.47853125,0.0,0.052690429687500005,-0.9053173828125001,9.800419921875001,-5.2734375,-0.2911376953125,82.15576171875,0.0,0.0,0,0.0,0.0,0.0,0.0,0.0,0.0,0.0 
1714023280.9120224,0.0,0.0,0.0,0.38778125,0.47853125,0.0,0.052690429687500005,-0.910107421875,9.7956298828125,-5.2734375,-0.2911376953125,82.15576171875,0.0,0.0,0,0.0,0.0,0.0,0.0,0.0,0.0,0.0 
1714023280.980044,0.0,0.0,0.0,0.38778125,0.47853125,0.0,0.0431103515625,-0.8957373046875,9.800419921875001,-5.2734375,-0.2911376953125,82.15576171875,0.0,0.0,0,0.0,0.0,0.0,0.0,0.0,0.0,0.0 
1714023281.0480678,0.0,0.0,0.0,0.38778125,0.47853125,0.0,0.0431103515625,-0.9005273437500001,9.814790039062501,-5.2734375,-0.2911376953125,82.15576171875,0.0,0.0,0,0.0,0.0,0.0,0.0,0.0,0.0,0.0 
1714023281.116098,0.0,0.0,0.0,0.3878125,0.478515625,0.0,0.047900390625000004,-0.9148974609375,9.800419921875001,-5.2789306640625,-0.2911376953125,82.15576171875,0.0,0.0,0,0.0,0.0,0.0,0.0,0.0,0.0,0.0 
1714023281.9301014,0.0,0.0,0.0,0.3878125,0.478515625,0.0,0.0431103515625,-0.8957373046875,9.8052099609375,-5.2789306640625,-0.2911376953125,82.15576171875,0.0,0.0,0,0.0,0.0,0.0,0.0,0.0,0.0,0.0 
1714023281.9981232,0.0,0.0,0.0,0.3878125,0.478515625,0.0,0.052690429687500005,-0.8957373046875,9.81,-5.2789306640625,-0.2911376953125,82.15576171875,0.0,0.0,0,0.0,0.0,0.0,0.0,0.0,0.0,0.0 
1714023282.0661566,0.0,0.0,0.0,0.3878125,0.478515625,0.0,0.05748046875,-0.8957373046875,9.81,-5.2789306640625,-0.2911376953125,82.15576171875,0.0,0.0,0,0.0,0.0,0.0,0.0,0.0,0.0,0.0 
1714023282.1341789,0.0,0.0,0.0,0.3878125,0.478515625,0.0,0.047900390625000004,-0.9005273437500001,9.81,-5.2789306640625,-0.2911376953125,82.15576171875,0.0,0.0,0,0.0,0.0,0.0,0.0,0.0,0.0,0.0 
1714023282.2022097,0.0,0.0,0.0,0.3878125,0.478515625,0.0,0.0383203125,-0.9053173828125001,9.81,-5.2789306640625,-0.2911376953125,82.15576171875,0.0,0.0,0,0.0,0.0,0.0,0.0,0.0,0.0,0.0 
1714023282.2702339,0.0,0.0,0.0,0.3878125,0.478515625,0.0,0.052690429687500005,-0.9053173828125001,9.81,-5.2789306640625,-0.2911376953125,82.15576171875,0.0,0.0,0,0.0,0.0,0.0,0.0,0.0,0.0,0.0 
1714023282.3382654,0.0,0.0,0.0,0.3878125,0.478515625,0.0,0.052690429687500005,-0.8957373046875,9.800419921875001,-5.2789306640625,-0.2911376953125,82.15576171875,0.0,0.0,0,0.0,0.0,0.0,0.0,0.0,0.0,0.0 
1714023282.4062967,0.0,0.0,0.0,0.3878125,0.478515625,0.0,0.047900390625000004,-0.9053173828125001,9.800419921875001,-5.2789306640625,-0.2911376953125,82.15576171875,0.0,0.0,0,0.0,0.0,0.0,0.0,0.0,0.0,0.0 
1714023282.4743319,0.0,0.0,0.0,0.3878125,0.478515625,0.0,0.047900390625000004,-0.9053173828125001,9.800419921875001,-5.2734375,-0.2911376953125,82.15576171875,0.0,0.0,0,0.0,0.0,0.0,0.0,0.0,0.0,0.0 
1714023282.5423613,0.0,0.0,0.0,0.3878125,0.478515625,0.0,0.0431103515625,-0.9053173828125001,9.8052099609375,-5.2789306640625,-0.296630859375,82.15576171875,0.0,0.0,0,0.0,0.0,0.0,0.0,0.0,0.0,0.0 
1714023283.3567698,0.0,0.0,0.0,0.3878125,0.478515625,0.0,0.0431103515625,-0.8957373046875,9.8052099609375,-5.2789306640625,-0.296630859375,82.15576171875,0.0,0.0,0,0.0,0.0,0.0,0.0,0.0,0.0,0.0 
1714023283.424798,0.0,0.0,0.0,0.3878125,0.478515625,0.0,0.0431103515625,-0.8957373046875,9.81,-5.2789306640625,-0.296630859375,82.15576171875,0.0,0.0,0,0.0,0.0,0.0,0.0,0.0,0.0,0.0 
1714023283.492821,0.0,0.0,0.0,0.3878125,0.478515625,0.0,0.047900390625000004,-0.9053173828125001,9.8052099609375,-5.2734375,-0.296630859375,82.15576171875,0.0,0.0,0,0.0,0.0,0.0,0.0,0.0,0.0,0.0 
1714023283.5608509,0.0,0.0,0.0,0.3878125,0.478515625,0.0,0.0431103515625,-0.9053173828125001,9.800419921875001,-5.2734375,-0.296630859375,82.15576171875,0.0,0.0,0,0.0,0.0,0.0,0.0,0.0,0.0,0.0 
1714023283.6288812,0.0,0.0,0.0,0.3878125,0.478515625,0.0,0.052690429687500005,-0.9053173828125001,9.8052099609375,-5.2734375,-0.296630859375,82.15576171875,0.0,0.0,0,0.0,0.0,0.0,0.0,0.0,0.0,0.0 
1714023283.6969151,0.0,0.0,0.0,0.3878125,0.478515625,0.0,0.047900390625000004,-0.9053173828125001,9.8052099609375,-5.2734375,-0.2911376953125,82.15576171875,0.0,0.0,0,0.0,0.0,0.0,0.0,0.0,0.0,0.0 
1714023283.764933,0.0,0.0,0.0,0.3878125,0.478515625,0.0,0.047900390625000004,-0.910107421875,9.81,-5.2734375,-0.2911376953125,82.15576171875,0.0,0.0,0,0.0,0.0,0.0,0.0,0.0,0.0,0.0 
1714023283.8329582,0.0,0.0,0.0,0.3878125,0.478515625,0.0,0.0431103515625,-0.9005273437500001,9.8052099609375,-5.2734375,-0.2911376953125,82.15576171875,0.0,0.0,0,0.0,0.0,0.0,0.0,0.0,0.0,0.0 
1714023283.9009874,0.0,0.0,0.0,0.3878125,0.478515625,0.0,0.052690429687500005,-0.9005273437500001,9.81,-5.2734375,-0.2911376953125,82.15576171875,0.0,0.0,0,0.0,0.0,0.0,0.0,0.0,0.0,0.0 
1714023283.969022,0.0,0.0,0.0,0.387796875,0.478515625,-1.5625e-05,0.047900390625000004,-0.9005273437500001,9.81,-5.2734375,-0.2911376953125,82.15576171875,0.0,0.0,0,0.0,0.0,0.0,0.0,0.0,0.0,0.0 
1714023284.7833326,0.0,0.0,0.0,0.387796875,0.478515625,-1.5625e-05,0.052690429687500005,-0.9005273437500001,9.800419921875001,-5.2734375,-0.2911376953125,82.15576171875,0.0,0.0,0,0.0,0.0,0.0,0.0,0.0,0.0,0.0 
1714023284.851365,0.0,0.0,0.0,0.387796875,0.478515625,-1.5625e-05,0.047900390625000004,-0.8957373046875,9.81,-5.2734375,-0.2911376953125,82.15576171875,0.0,0.0,0,0.0,0.0,0.0,0.0,0.0,0.0,0.0 
1714023284.919395,0.0,0.0,0.0,0.387796875,0.478515625,-1.5625e-05,0.047900390625000004,-0.9005273437500001,9.800419921875001,-5.2734375,-0.2911376953125,82.15576171875,0.0,0.0,0,0.0,0.0,0.0,0.0,0.0,0.0,0.0 
1714023284.9874163,0.0,0.0,0.0,0.387796875,0.478515625,-1.5625e-05,0.047900390625000004,-0.9053173828125001,9.8052099609375,-5.2734375,-0.2911376953125,82.15576171875,0.0,0.0,0,0.0,0.0,0.0,0.0,0.0,0.0,0.0 
1714023285.0554585,0.0,0.0,0.0,0.387796875,0.478515625,-1.5625e-05,0.052690429687500005,-0.9053173828125001,9.8052099609375,-5.2734375,-0.2911376953125,82.15576171875,0.0,0.0,0,0.0,0.0,0.0,0.0,0.0,0.0,0.0 
1714023285.1234841,0.0,0.0,0.0,0.387796875,0.478515625,-1.5625e-05,0.0383203125,-0.8957373046875,9.7956298828125,-5.2734375,-0.2911376953125,82.15576171875,0.0,0.0,0,0.0,0.0,0.0,0.0,0.0,0.0,0.0 
1714023285.191507,0.0,0.0,0.0,0.387796875,0.478515625,-1.5625e-05,0.047900390625000004,-0.9005273437500001,9.814790039062501,-5.2734375,-0.2911376953125,82.15576171875,0.0,0.0,0,0.0,0.0,0.0,0.0,0.0,0.0,0.0 
1714023285.2595348,0.0,0.0,0.0,0.387796875,0.478515625,-1.5625e-05,0.047900390625000004,-0.9053173828125001,9.800419921875001,-5.2734375,-0.2911376953125,82.15576171875,0.0,0.0,0,0.0,0.0,0.0,0.0,0.0,0.0,0.0 
1714023285.327562,0.0,0.0,0.0,0.387796875,0.478515625,-1.5625e-05,0.047900390625000004,-0.9053173828125001,9.800419921875001,-5.2734375,-0.2911376953125,82.15576171875,0.0,0.0,0,0.0,0.0,0.0,0.0,0.0,0.0,0.0 
1714023285.3955953,0.0,0.0,0.0,0.3878125,0.47850000000000004,0.0,0.05748046875,-0.9053173828125001,9.8052099609375,-5.2734375,-0.2911376953125,82.15576171875,0.0,0.0,0,0.0,0.0,0.0,0.0,0.0,0.0,0.0 
1714023286.209759,0.0,0.0,0.0,0.3878125,0.47850000000000004,0.0,0.052690429687500005,-0.9053173828125001,9.800419921875001,-5.2734375,-0.2911376953125,82.15576171875,0.0,0.0,0,0.0,0.0,0.0,0.0,0.0,0.0,0.0 
1714023286.2777855,0.0,0.0,0.0,0.3878125,0.47850000000000004,0.0,0.047900390625000004,-0.9053173828125001,9.800419921875001,-5.2734375,-0.2911376953125,82.15576171875,0.0,0.0,0,0.0,0.0,0.0,0.0,0.0,0.0,0.0 
1714023286.3458138,0.0,0.0,0.0,0.3878125,0.47850000000000004,0.0,0.052690429687500005,-0.9053173828125001,9.8052099609375,-5.2734375,-0.2911376953125,82.15576171875,0.0,0.0,0,0.0,0.0,0.0,0.0,0.0,0.0,0.0 
1714023286.4138575,0.0,0.0,0.0,0.3878125,0.47850000000000004,0.0,0.0431103515625,-0.8957373046875,9.8052099609375,-5.2734375,-0.2911376953125,82.15576171875,0.0,0.0,0,0.0,0.0,0.0,0.0,0.0,0.0,0.0 
1714023286.4818857,0.0,0.0,0.0,0.3878125,0.47850000000000004,0.0,0.0431103515625,-0.910107421875,9.800419921875001,-5.2734375,-0.2911376953125,82.15576171875,0.0,0.0,0,0.0,0.0,0.0,0.0,0.0,0.0,0.0 
1714023286.549911,0.0,0.0,0.0,0.3878125,0.47850000000000004,0.0,0.047900390625000004,-0.9005273437500001,9.8052099609375,-5.2734375,-0.2911376953125,82.15576171875,0.0,0.0,0,0.0,0.0,0.0,0.0,0.0,0.0,0.0 
1714023286.6179461,0.0,0.0,0.0,0.3878125,0.47850000000000004,0.0,0.0431103515625,-0.9053173828125001,9.8052099609375,-5.2734375,-0.2911376953125,82.15576171875,0.0,0.0,0,0.0,0.0,0.0,0.0,0.0,0.0,0.0 
1714023286.6859775,0.0,0.0,0.0,0.3878125,0.47850000000000004,0.0,0.0431103515625,-0.8957373046875,9.8052099609375,-5.2734375,-0.2911376953125,82.15576171875,0.0,0.0,0,0.0,0.0,0.0,0.0,0.0,0.0,0.0 
1714023286.7540092,0.0,0.0,0.0,0.3878125,0.47850000000000004,0.0,0.047900390625000004,-0.9005273437500001,9.800419921875001,-5.2734375,-0.2911376953125,82.15576171875,0.0,0.0,0,0.0,0.0,0.0,0.0,0.0,0.0,0.0 
1714023286.8220413,0.0,0.0,0.0,0.387796875,0.478515625,0.0,0.052690429687500005,-0.9053173828125001,9.8052099609375,-5.2734375,-0.2911376953125,82.15576171875,0.0,0.0,0,0.0,0.0,0.0,0.0,0.0,0.0,0.0 
1714023287.636427,0.0,0.0,0.0,0.387796875,0.478515625,0.0,0.05748046875,-0.9053173828125001,9.7956298828125,-5.2734375,-0.2911376953125,82.15576171875,0.0,0.0,0,0.0,0.0,0.0,0.0,0.0,0.0,0.0 
1714023287.7044516,0.0,0.0,0.0,0.387796875,0.478515625,0.0,0.05748046875,-0.9053173828125001,9.800419921875001,-5.2734375,-0.2911376953125,82.15576171875,0.0,0.0,0,0.0,0.0,0.0,0.0,0.0,0.0,0.0 
1714023287.7724872,0.0,0.0,0.0,0.387796875,0.478515625,0.0,0.0431103515625,-0.910107421875,9.8052099609375,-5.2734375,-0.2911376953125,82.15576171875,0.0,0.0,0,0.0,0.0,0.0,0.0,0.0,0.0,0.0 
1714023287.8405135,0.0,0.0,0.0,0.387796875,0.478515625,0.0,0.047900390625000004,-0.9005273437500001,9.8052099609375,-5.2734375,-0.2911376953125,82.15576171875,0.0,0.0,0,0.0,0.0,0.0,0.0,0.0,0.0,0.0 
1714023287.9085448,0.0,0.0,0.0,0.387796875,0.478515625,0.0,0.047900390625000004,-0.9005273437500001,9.8052099609375,-5.2734375,-0.2911376953125,82.15576171875,0.0,0.0,0,0.0,0.0,0.0,0.0,0.0,0.0,0.0 
1714023287.9765708,0.0,0.0,0.0,0.387796875,0.478515625,0.0,0.0431103515625,-0.9053173828125001,9.8052099609375,-5.2734375,-0.2911376953125,82.15576171875,0.0,0.0,0,0.0,0.0,0.0,0.0,0.0,0.0,0.0 
1714023288.0446062,0.0,0.0,0.0,0.387796875,0.478515625,0.0,0.052690429687500005,-0.9053173828125001,9.819580078125,-5.2734375,-0.2911376953125,82.15576171875,0.0,0.0,0,0.0,0.0,0.0,0.0,0.0,0.0,0.0 
1714023288.1126287,0.0,0.0,0.0,0.387796875,0.478515625,0.0,0.05748046875,-0.9005273437500001,9.8052099609375,-5.2734375,-0.2911376953125,82.15576171875,0.0,0.0,0,0.0,0.0,0.0,0.0,0.0,0.0,0.0 
1714023288.180654,0.0,0.0,0.0,0.387796875,0.478515625,0.0,0.0431103515625,-0.9053173828125001,9.8052099609375,-5.2734375,-0.2911376953125,82.15576171875,0.0,0.0,0,0.0,0.0,0.0,0.0,0.0,0.0,0.0 
1714023288.248676,0.0,0.0,0.0,0.387828125,0.47850000000000004,-1.5625e-05,0.0431103515625,-0.9053173828125001,9.81,-5.2734375,-0.2911376953125,82.15576171875,0.0,0.0,0,0.0,0.0,0.0,0.0,0.0,0.0,0.0 
1714023289.063145,0.0,0.0,0.0,0.387828125,0.47850000000000004,-1.5625e-05,0.052690429687500005,-0.910107421875,9.81,-5.2734375,-0.2911376953125,82.15576171875,0.0,0.0,0,0.0,0.0,0.0,0.0,0.0,0.0,0.0 
1714023289.131178,0.0,0.0,0.0,0.387828125,0.47850000000000004,-1.5625e-05,0.047900390625000004,-0.9053173828125001,9.800419921875001,-5.2734375,-0.2911376953125,82.15576171875,0.0,0.0,0,0.0,0.0,0.0,0.0,0.0,0.0,0.0 
1714023289.1992078,0.0,0.0,0.0,0.387828125,0.47850000000000004,-1.5625e-05,0.047900390625000004,-0.9053173828125001,9.81,-5.2734375,-0.2911376953125,82.15576171875,0.0,0.0,0,0.0,0.0,0.0,0.0,0.0,0.0,0.0 
1714023289.2672558,0.0,0.0,0.0,0.387828125,0.47850000000000004,-1.5625e-05,0.047900390625000004,-0.8957373046875,9.800419921875001,-5.2734375,-0.2911376953125,82.15576171875,0.0,0.0,0,0.0,0.0,0.0,0.0,0.0,0.0,0.0 
1714023289.3352747,0.0,0.0,0.0,0.387828125,0.47850000000000004,-1.5625e-05,0.052690429687500005,-0.8957373046875,9.8052099609375,-5.2734375,-0.2911376953125,82.15576171875,0.0,0.0,0,0.0,0.0,0.0,0.0,0.0,0.0,0.0 
1714023289.403306,0.0,0.0,0.0,0.387828125,0.47850000000000004,-1.5625e-05,0.0431103515625,-0.9148974609375,9.800419921875001,-5.2734375,-0.2911376953125,82.15576171875,0.0,0.0,0,0.0,0.0,0.0,0.0,0.0,0.0,0.0 
1714023289.4713557,0.0,0.0,0.0,0.387828125,0.47850000000000004,-1.5625e-05,0.0431103515625,-0.9148974609375,9.8052099609375,-5.2734375,-0.2911376953125,82.15576171875,0.0,0.0,0,0.0,0.0,0.0,0.0,0.0,0.0,0.0 
1714023289.5394006,0.0,0.0,0.0,0.387828125,0.47850000000000004,-1.5625e-05,0.047900390625000004,-0.910107421875,9.800419921875001,-5.2734375,-0.2911376953125,82.15576171875,0.0,0.0,0,0.0,0.0,0.0,0.0,0.0,0.0,0.0 
1714023289.6074252,0.0,0.0,0.0,0.387828125,0.47850000000000004,-1.5625e-05,0.052690429687500005,-0.910107421875,9.8052099609375,-5.2734375,-0.2911376953125,82.15576171875,0.0,0.0,0,0.0,0.0,0.0,0.0,0.0,0.0,0.0 
1714023289.6754627,0.0,0.0,0.0,0.3878125,0.478515625,-1.5625e-05,0.047900390625000004,-0.9053173828125001,9.8052099609375,-5.2734375,-0.2911376953125,82.15576171875,0.0,0.0,0,0.0,0.0,0.0,0.0,0.0,0.0,0.0 
1714023290.4898603,0.0,0.0,0.0,0.3878125,0.478515625,-1.5625e-05,0.052690429687500005,-0.9053173828125001,9.800419921875001,-5.2734375,-0.2911376953125,82.15576171875,0.0,0.0,0,0.0,0.0,0.0,0.0,0.0,0.0,0.0 
1714023290.5578833,0.0,0.0,0.0,0.3878125,0.478515625,-1.5625e-05,0.052690429687500005,-0.9053173828125001,9.7956298828125,-5.2734375,-0.2911376953125,82.15576171875,0.0,0.0,0,0.0,0.0,0.0,0.0,0.0,0.0,0.0 
1714023290.6259077,0.0,0.0,0.0,0.3878125,0.478515625,-1.5625e-05,0.0431103515625,-0.9005273437500001,9.7956298828125,-5.2734375,-0.2911376953125,82.15576171875,0.0,0.0,0,0.0,0.0,0.0,0.0,0.0,0.0,0.0 
1714023290.6939328,0.0,0.0,0.0,0.3878125,0.478515625,-1.5625e-05,0.052690429687500005,-0.9053173828125001,9.8052099609375,-5.2734375,-0.2911376953125,82.15576171875,0.0,0.0,0,0.0,0.0,0.0,0.0,0.0,0.0,0.0 
1714023290.7619653,0.0,0.0,0.0,0.3878125,0.478515625,-1.5625e-05,0.047900390625000004,-0.9005273437500001,9.800419921875001,-5.2734375,-0.2911376953125,82.15576171875,0.0,0.0,0,0.0,0.0,0.0,0.0,0.0,0.0,0.0 
1714023290.829996,0.0,0.0,0.0,0.3878125,0.478515625,-1.5625e-05,0.0431103515625,-0.9005273437500001,9.800419921875001,-5.2734375,-0.2911376953125,82.15576171875,0.0,0.0,0,0.0,0.0,0.0,0.0,0.0,0.0,0.0 
1714023290.8980255,0.0,0.0,0.0,0.3878125,0.478515625,-1.5625e-05,0.047900390625000004,-0.9005273437500001,9.8052099609375,-5.2734375,-0.2911376953125,82.15576171875,0.0,0.0,0,0.0,0.0,0.0,0.0,0.0,0.0,0.0 
1714023290.9660559,0.0,0.0,0.0,0.3878125,0.478515625,-1.5625e-05,0.0431103515625,-0.9053173828125001,9.7956298828125,-5.2734375,-0.2911376953125,82.15576171875,0.0,0.0,0,0.0,0.0,0.0,0.0,0.0,0.0,0.0 
1714023291.0340917,0.0,0.0,0.0,0.3878125,0.478515625,-1.5625e-05,0.047900390625000004,-0.9005273437500001,9.8052099609375,-5.2734375,-0.2911376953125,82.15576171875,0.0,0.0,0,0.0,0.0,0.0,0.0,0.0,0.0,0.0 
1714023291.102132,0.0,0.0,0.0,0.387796875,0.478515625,1.5625e-05,0.047900390625000004,-0.910107421875,9.8052099609375,-5.2734375,-0.2911376953125,82.15576171875,0.0,0.0,0,0.0,0.0,0.0,0.0,0.0,0.0,0.0 
1714023291.9165316,0.0,0.0,0.0,0.387796875,0.478515625,1.5625e-05,0.052690429687500005,-0.9005273437500001,9.8052099609375,-5.2734375,-0.2911376953125,82.15576171875,0.0,0.0,0,0.0,0.0,0.0,0.0,0.0,0.0,0.0 
1714023291.9845657,0.0,0.0,0.0,0.387796875,0.478515625,1.5625e-05,0.047900390625000004,-0.9005273437500001,9.800419921875001,-5.2734375,-0.2911376953125,82.15576171875,0.0,0.0,0,0.0,0.0,0.0,0.0,0.0,0.0,0.0 
1714023292.0526102,0.0,0.0,0.0,0.387796875,0.478515625,1.5625e-05,0.047900390625000004,-0.910107421875,9.7956298828125,-5.2734375,-0.2911376953125,82.15576171875,0.0,0.0,0,0.0,0.0,0.0,0.0,0.0,0.0,0.0 
1714023292.1206648,0.0,0.0,0.0,0.387796875,0.478515625,1.5625e-05,0.047900390625000004,-0.9005273437500001,9.79083984375,-5.2734375,-0.2911376953125,82.15576171875,0.0,0.0,0,0.0,0.0,0.0,0.0,0.0,0.0,0.0 
1714023292.1887343,0.0,0.0,0.0,0.387796875,0.478515625,1.5625e-05,0.0431103515625,-0.910107421875,9.8052099609375,-5.2734375,-0.2911376953125,82.15576171875,0.0,0.0,0,0.0,0.0,0.0,0.0,0.0,0.0,0.0 
1714023292.2567499,0.0,0.0,0.0,0.387796875,0.478515625,1.5625e-05,0.052690429687500005,-0.910107421875,9.8052099609375,-5.2734375,-0.2911376953125,82.15576171875,0.0,0.0,0,0.0,0.0,0.0,0.0,0.0,0.0,0.0 
1714023292.3247943,0.0,0.0,0.0,0.387796875,0.478515625,1.5625e-05,0.047900390625000004,-0.9053173828125001,9.800419921875001,-5.2734375,-0.2911376953125,82.15576171875,0.0,0.0,0,0.0,0.0,0.0,0.0,0.0,0.0,0.0 
1714023292.3928313,0.0,0.0,0.0,0.387796875,0.478515625,1.5625e-05,0.0431103515625,-0.910107421875,9.8052099609375,-5.2734375,-0.2911376953125,82.15576171875,0.0,0.0,0,0.0,0.0,0.0,0.0,0.0,0.0,0.0 
1714023292.4608922,0.0,0.0,0.0,0.387796875,0.478515625,1.5625e-05,0.0431103515625,-0.9005273437500001,9.8052099609375,-5.2734375,-0.2911376953125,82.15576171875,0.0,0.0,0,0.0,0.0,0.0,0.0,0.0,0.0,0.0 
1714023292.5289347,0.0,0.0,0.0,0.387796875,0.47850000000000004,-3.125e-05,0.0383203125,-0.9148974609375,9.7956298828125,-5.2734375,-0.2911376953125,82.15576171875,0.0,0.0,0,0.0,0.0,0.0,0.0,0.0,0.0,0.0 
1714023293.3429606,0.0,0.0,0.0,0.387796875,0.47850000000000004,-3.125e-05,0.052690429687500005,-0.910107421875,9.800419921875001,-5.2734375,-0.2911376953125,82.15576171875,0.0,0.0,0,0.0,0.0,0.0,0.0,0.0,0.0,0.0 
1714023293.4110096,0.0,0.0,0.0,0.387796875,0.47850000000000004,-3.125e-05,0.052690429687500005,-0.9053173828125001,9.800419921875001,-5.2734375,-0.2911376953125,82.15576171875,0.0,0.0,0,0.0,0.0,0.0,0.0,0.0,0.0,0.0 
1714023293.4790366,0.0,0.0,0.0,0.387796875,0.47850000000000004,-3.125e-05,0.047900390625000004,-0.9005273437500001,9.8052099609375,-5.2734375,-0.2911376953125,82.15576171875,0.0,0.0,0,0.0,0.0,0.0,0.0,0.0,0.0,0.0 
1714023293.5470722,0.0,0.0,0.0,0.387796875,0.47850000000000004,-3.125e-05,0.05748046875,-0.9053173828125001,9.800419921875001,-5.2789306640625,-0.2911376953125,82.15576171875,0.0,0.0,0,0.0,0.0,0.0,0.0,0.0,0.0,0.0 
1714023293.6150937,0.0,0.0,0.0,0.387796875,0.47850000000000004,-3.125e-05,0.052690429687500005,-0.910107421875,9.81,-5.2789306640625,-0.2911376953125,82.15576171875,0.0,0.0,0,0.0,0.0,0.0,0.0,0.0,0.0,0.0 
1714023293.683117,0.0,0.0,0.0,0.387796875,0.47850000000000004,-3.125e-05,0.052690429687500005,-0.9148974609375,9.7956298828125,-5.2789306640625,-0.2911376953125,82.15576171875,0.0,0.0,0,0.0,0.0,0.0,0.0,0.0,0.0,0.0 
1714023293.7511404,0.0,0.0,0.0,0.387796875,0.47850000000000004,-3.125e-05,0.052690429687500005,-0.890947265625,9.81,-5.2789306640625,-0.2911376953125,82.15576171875,0.0,0.0,0,0.0,0.0,0.0,0.0,0.0,0.0,0.0 
1714023293.81916,0.0,0.0,0.0,0.387796875,0.47850000000000004,-3.125e-05,0.047900390625000004,-0.9053173828125001,9.81,-5.2789306640625,-0.2911376953125,82.15576171875,0.0,0.0,0,0.0,0.0,0.0,0.0,0.0,0.0,0.0 
1714023293.8871863,0.0,0.0,0.0,0.387796875,0.47850000000000004,-3.125e-05,0.0431103515625,-0.8957373046875,9.81,-5.2789306640625,-0.2911376953125,82.15576171875,0.0,0.0,0,0.0,0.0,0.0,0.0,0.0,0.0,0.0 
1714023293.955207,0.0,0.0,0.0,0.3878125,0.47850000000000004,0.0,0.052690429687500005,-0.9053173828125001,9.81,-5.2734375,-0.2911376953125,82.15576171875,0.0,0.0,0,0.0,0.0,0.0,0.0,0.0,0.0,0.0 
1714023294.769407,0.0,0.0,0.0,0.3878125,0.47850000000000004,0.0,0.047900390625000004,-0.9053173828125001,9.800419921875001,-5.2734375,-0.2911376953125,82.15576171875,0.0,0.0,0,0.0,0.0,0.0,0.0,0.0,0.0,0.0 
1714023294.8374398,0.0,0.0,0.0,0.3878125,0.47850000000000004,0.0,0.052690429687500005,-0.910107421875,9.8052099609375,-5.2734375,-0.2911376953125,82.15576171875,0.0,0.0,0,0.0,0.0,0.0,0.0,0.0,0.0,0.0 
1714023294.905464,0.0,0.0,0.0,0.3878125,0.47850000000000004,0.0,0.047900390625000004,-0.9005273437500001,9.81,-5.2734375,-0.2911376953125,82.15576171875,0.0,0.0,0,0.0,0.0,0.0,0.0,0.0,0.0,0.0 
1714023294.9734828,0.0,0.0,0.0,0.3878125,0.47850000000000004,0.0,0.0431103515625,-0.9005273437500001,9.8052099609375,-5.2734375,-0.2911376953125,82.15576171875,0.0,0.0,0,0.0,0.0,0.0,0.0,0.0,0.0,0.0 
1714023295.0415158,0.0,0.0,0.0,0.3878125,0.47850000000000004,0.0,0.0431103515625,-0.9005273437500001,9.8052099609375,-5.2734375,-0.2911376953125,82.15576171875,0.0,0.0,0,0.0,0.0,0.0,0.0,0.0,0.0,0.0 
1714023295.1095433,0.0,0.0,0.0,0.3878125,0.47850000000000004,0.0,0.047900390625000004,-0.9005273437500001,9.800419921875001,-5.2734375,-0.2911376953125,82.15576171875,0.0,0.0,0,0.0,0.0,0.0,0.0,0.0,0.0,0.0 
1714023295.1775775,0.0,0.0,0.0,0.3878125,0.47850000000000004,0.0,0.047900390625000004,-0.9053173828125001,9.800419921875001,-5.2734375,-0.2911376953125,82.15576171875,0.0,0.0,0,0.0,0.0,0.0,0.0,0.0,0.0,0.0 
1714023295.2455974,0.0,0.0,0.0,0.3878125,0.47850000000000004,0.0,0.0383203125,-0.910107421875,9.81,-5.2734375,-0.2911376953125,82.15576171875,0.0,0.0,0,0.0,0.0,0.0,0.0,0.0,0.0,0.0 
1714023295.3136177,0.0,0.0,0.0,0.3878125,0.47850000000000004,0.0,0.047900390625000004,-0.9053173828125001,9.800419921875001,-5.2734375,-0.2911376953125,82.15576171875,0.0,0.0,0,0.0,0.0,0.0,0.0,0.0,0.0,0.0 
1714023295.381639,0.0,0.0,0.0,0.387765625,0.47850000000000004,-1.5625e-05,0.0431103515625,-0.9005273437500001,9.81,-5.2734375,-0.2911376953125,82.15576171875,0.0,0.0,0,0.0,0.0,0.0,0.0,0.0,0.0,0.0 
1714023296.1959665,0.0,0.0,0.0,0.387765625,0.47850000000000004,-1.5625e-05,0.052690429687500005,-0.9005273437500001,9.800419921875001,-5.2734375,-0.2911376953125,82.15576171875,0.0,0.0,0,0.0,0.0,0.0,0.0,0.0,0.0,0.0 
1714023296.2640066,0.0,0.0,0.0,0.387765625,0.47850000000000004,-1.5625e-05,0.047900390625000004,-0.8957373046875,9.8052099609375,-5.2734375,-0.2911376953125,82.15576171875,0.0,0.0,0,0.0,0.0,0.0,0.0,0.0,0.0,0.0 
1714023296.3320355,0.0,0.0,0.0,0.387765625,0.47850000000000004,-1.5625e-05,0.052690429687500005,-0.910107421875,9.7956298828125,-5.2734375,-0.2911376953125,82.15576171875,0.0,0.0,0,0.0,0.0,0.0,0.0,0.0,0.0,0.0 
1714023296.4000692,0.0,0.0,0.0,0.387765625,0.47850000000000004,-1.5625e-05,0.047900390625000004,-0.9005273437500001,9.8052099609375,-5.2734375,-0.2911376953125,82.15576171875,0.0,0.0,0,0.0,0.0,0.0,0.0,0.0,0.0,0.0 
1714023296.4680905,0.0,0.0,0.0,0.387765625,0.47850000000000004,-1.5625e-05,0.052690429687500005,-0.890947265625,9.8052099609375,-5.2734375,-0.2911376953125,82.15576171875,0.0,0.0,0,0.0,0.0,0.0,0.0,0.0,0.0,0.0 
1714023296.5361054,0.0,0.0,0.0,0.387765625,0.47850000000000004,-1.5625e-05,0.052690429687500005,-0.9053173828125001,9.8052099609375,-5.2734375,-0.2911376953125,82.15576171875,0.0,0.0,0,0.0,0.0,0.0,0.0,0.0,0.0,0.0 
1714023296.60413,0.0,0.0,0.0,0.387765625,0.47850000000000004,-1.5625e-05,0.052690429687500005,-0.9005273437500001,9.81,-5.2734375,-0.2911376953125,82.15576171875,0.0,0.0,0,0.0,0.0,0.0,0.0,0.0,0.0,0.0 
1714023296.6721554,0.0,0.0,0.0,0.387765625,0.47850000000000004,-1.5625e-05,0.052690429687500005,-0.8957373046875,9.7956298828125,-5.2734375,-0.2911376953125,82.15576171875,0.0,0.0,0,0.0,0.0,0.0,0.0,0.0,0.0,0.0 
1714023296.740182,0.0,0.0,0.0,0.387765625,0.47850000000000004,-1.5625e-05,0.047900390625000004,-0.9053173828125001,9.8052099609375,-5.2734375,-0.2911376953125,82.15576171875,0.0,0.0,0,0.0,0.0,0.0,0.0,0.0,0.0,0.0 
1714023296.808214,0.0,0.0,0.0,0.38778125,0.478484375,1.5625e-05,0.047900390625000004,-0.9053173828125001,9.8052099609375,-5.2679443359375,-0.2911376953125,82.15576171875,0.0,0.0,0,0.0,0.0,0.0,0.0,0.0,0.0,0.0 
1714023297.6223893,0.0,0.0,0.0,0.38778125,0.478484375,1.5625e-05,0.052690429687500005,-0.9148974609375,9.8052099609375,-5.2679443359375,-0.2911376953125,82.15576171875,0.0,0.0,0,0.0,0.0,0.0,0.0,0.0,0.0,0.0 
1714023297.6904142,0.0,0.0,0.0,0.38778125,0.478484375,1.5625e-05,0.052690429687500005,-0.9053173828125001,9.81,-5.2734375,-0.2911376953125,82.15576171875,0.0,0.0,0,0.0,0.0,0.0,0.0,0.0,0.0,0.0 
1714023297.758439,0.0,0.0,0.0,0.38778125,0.478484375,1.5625e-05,0.047900390625000004,-0.9005273437500001,9.800419921875001,-5.2734375,-0.2911376953125,82.15576171875,0.0,0.0,0,0.0,0.0,0.0,0.0,0.0,0.0,0.0 
1714023297.826464,0.0,0.0,0.0,0.38778125,0.478484375,1.5625e-05,0.047900390625000004,-0.8957373046875,9.79083984375,-5.2734375,-0.2911376953125,82.15576171875,0.0,0.0,0,0.0,0.0,0.0,0.0,0.0,0.0,0.0 
1714023297.8944964,0.0,0.0,0.0,0.38778125,0.478484375,1.5625e-05,0.047900390625000004,-0.910107421875,9.8052099609375,-5.2734375,-0.2911376953125,82.15576171875,0.0,0.0,0,0.0,0.0,0.0,0.0,0.0,0.0,0.0 
1714023297.962527,0.0,0.0,0.0,0.38778125,0.478484375,1.5625e-05,0.047900390625000004,-0.910107421875,9.81,-5.2734375,-0.2911376953125,82.15576171875,0.0,0.0,0,0.0,0.0,0.0,0.0,0.0,0.0,0.0 
1714023298.0305579,0.0,0.0,0.0,0.38778125,0.478484375,1.5625e-05,0.047900390625000004,-0.9053173828125001,9.800419921875001,-5.2734375,-0.2911376953125,82.15576171875,0.0,0.0,0,0.0,0.0,0.0,0.0,0.0,0.0,0.0 
1714023298.0985813,0.0,0.0,0.0,0.38778125,0.478484375,1.5625e-05,0.052690429687500005,-0.9053173828125001,9.800419921875001,-5.2734375,-0.2911376953125,82.15576171875,0.0,0.0,0,0.0,0.0,0.0,0.0,0.0,0.0,0.0 
1714023298.1665895,0.0,0.0,0.0,0.38778125,0.478484375,1.5625e-05,0.0383203125,-0.9005273437500001,9.8052099609375,-5.2734375,-0.2911376953125,82.15576171875,0.0,0.0,0,0.0,0.0,0.0,0.0,0.0,0.0,0.0 
1714023298.2346172,0.0,0.0,0.0,0.387796875,0.47850000000000004,0.0,0.052690429687500005,-0.9053173828125001,9.8052099609375,-5.2734375,-0.2911376953125,82.15576171875,0.0,0.0,0,0.0,0.0,0.0,0.0,0.0,0.0,0.0 
1714023299.0487463,0.0,0.0,0.0,0.387796875,0.47850000000000004,0.0,0.05748046875,-0.9053173828125001,9.800419921875001,-5.2734375,-0.2911376953125,82.15576171875,0.0,0.0,0,0.0,0.0,0.0,0.0,0.0,0.0,0.0 
1714023299.1167746,0.0,0.0,0.0,0.387796875,0.47850000000000004,0.0,0.052690429687500005,-0.9053173828125001,9.8052099609375,-5.2734375,-0.2911376953125,82.15576171875,0.0,0.0,0,0.0,0.0,0.0,0.0,0.0,0.0,0.0 
1714023299.1847997,0.0,0.0,0.0,0.387796875,0.47850000000000004,0.0,0.052690429687500005,-0.9053173828125001,9.7956298828125,-5.2734375,-0.2911376953125,82.15576171875,0.0,0.0,0,0.0,0.0,0.0,0.0,0.0,0.0,0.0 
1714023299.2528245,0.0,0.0,0.0,0.387796875,0.47850000000000004,0.0,0.052690429687500005,-0.9005273437500001,9.8052099609375,-5.2734375,-0.296630859375,82.15576171875,0.0,0.0,0,0.0,0.0,0.0,0.0,0.0,0.0,0.0 
1714023299.3208578,0.0,0.0,0.0,0.387796875,0.47850000000000004,0.0,0.0431103515625,-0.910107421875,9.8052099609375,-5.2734375,-0.296630859375,82.15576171875,0.0,0.0,0,0.0,0.0,0.0,0.0,0.0,0.0,0.0 
1714023299.3888917,0.0,0.0,0.0,0.387796875,0.47850000000000004,0.0,0.052690429687500005,-0.9005273437500001,9.81,-5.2734375,-0.296630859375,82.15576171875,0.0,0.0,0,0.0,0.0,0.0,0.0,0.0,0.0,0.0 
1714023299.4569125,0.0,0.0,0.0,0.387796875,0.47850000000000004,0.0,0.0431103515625,-0.9053173828125001,9.800419921875001,-5.2734375,-0.296630859375,82.15576171875,0.0,0.0,0,0.0,0.0,0.0,0.0,0.0,0.0,0.0 
1714023299.5249355,0.0,0.0,0.0,0.387796875,0.47850000000000004,0.0,0.0383203125,-0.9053173828125001,9.800419921875001,-5.2734375,-0.296630859375,82.15576171875,0.0,0.0,0,0.0,0.0,0.0,0.0,0.0,0.0,0.0 
1714023299.5929682,0.0,0.0,0.0,0.387796875,0.47850000000000004,0.0,0.052690429687500005,-0.9005273437500001,9.81,-5.2734375,-0.296630859375,82.15576171875,0.0,0.0,0,0.0,0.0,0.0,0.0,0.0,0.0,0.0 
1714023299.6609874,0.0,0.0,0.0,0.387765625,0.47850000000000004,-1.5625e-05,0.0431103515625,-0.9005273437500001,9.800419921875001,-5.2734375,-0.296630859375,82.15576171875,0.0,0.0,0,0.0,0.0,0.0,0.0,0.0,0.0,0.0 
1714023300.475177,0.0,0.0,0.0,0.387765625,0.47850000000000004,-1.5625e-05,0.052690429687500005,-0.9005273437500001,9.8052099609375,-5.2734375,-0.296630859375,82.15576171875,0.0,0.0,0,0.0,0.0,0.0,0.0,0.0,0.0,0.0 
1714023300.5431929,0.0,0.0,0.0,0.387765625,0.47850000000000004,-1.5625e-05,0.052690429687500005,-0.9053173828125001,9.8052099609375,-5.2734375,-0.296630859375,82.15576171875,0.0,0.0,0,0.0,0.0,0.0,0.0,0.0,0.0,0.0 
1714023300.6112163,0.0,0.0,0.0,0.387765625,0.47850000000000004,-1.5625e-05,0.047900390625000004,-0.910107421875,9.8052099609375,-5.2734375,-0.296630859375,82.15576171875,0.0,0.0,0,0.0,0.0,0.0,0.0,0.0,0.0,0.0 
1714023300.6792386,0.0,0.0,0.0,0.387765625,0.47850000000000004,-1.5625e-05,0.0622705078125,-0.9005273437500001,9.8052099609375,-5.2734375,-0.296630859375,82.15576171875,0.0,0.0,0,0.0,0.0,0.0,0.0,0.0,0.0,0.0 
1714023300.747262,0.0,0.0,0.0,0.387765625,0.47850000000000004,-1.5625e-05,0.047900390625000004,-0.9053173828125001,9.8052099609375,-5.2734375,-0.296630859375,82.15576171875,0.0,0.0,0,0.0,0.0,0.0,0.0,0.0,0.0,0.0 
1714023300.8152895,0.0,0.0,0.0,0.387765625,0.47850000000000004,-1.5625e-05,0.0431103515625,-0.9005273437500001,9.81,-5.2734375,-0.296630859375,82.15576171875,0.0,0.0,0,0.0,0.0,0.0,0.0,0.0,0.0,0.0 
1714023300.8833249,0.0,0.0,0.0,0.387765625,0.47850000000000004,-1.5625e-05,0.0622705078125,-0.9053173828125001,9.800419921875001,-5.2734375,-0.296630859375,82.15576171875,0.0,0.0,0,0.0,0.0,0.0,0.0,0.0,0.0,0.0 
1714023300.9513476,0.0,0.0,0.0,0.387765625,0.47850000000000004,-1.5625e-05,0.047900390625000004,-0.9005273437500001,9.7956298828125,-5.2734375,-0.296630859375,82.15576171875,0.0,0.0,0,0.0,0.0,0.0,0.0,0.0,0.0,0.0 
1714023301.0193744,0.0,0.0,0.0,0.387765625,0.47850000000000004,-1.5625e-05,0.047900390625000004,-0.8957373046875,9.8052099609375,-5.2734375,-0.296630859375,82.15576171875,0.0,0.0,0,0.0,0.0,0.0,0.0,0.0,0.0,0.0 
1714023301.0874093,0.0,0.0,0.0,0.387796875,0.478484375,0.0,0.047900390625000004,-0.9005273437500001,9.8052099609375,-5.2734375,-0.296630859375,82.15576171875,0.0,0.0,0,0.0,0.0,0.0,0.0,0.0,0.0,0.0 
1714023301.9016762,0.0,0.0,0.0,0.387796875,0.478484375,0.0,0.047900390625000004,-0.9005273437500001,9.8052099609375,-5.2734375,-0.296630859375,82.15576171875,0.0,0.0,0,0.0,0.0,0.0,0.0,0.0,0.0,0.0 
1714023301.9697108,0.0,0.0,0.0,0.387796875,0.478484375,0.0,0.0431103515625,-0.9005273437500001,9.800419921875001,-5.2734375,-0.296630859375,82.15576171875,0.0,0.0,0,0.0,0.0,0.0,0.0,0.0,0.0,0.0 
1714023302.0377402,0.0,0.0,0.0,0.387796875,0.478484375,0.0,0.05748046875,-0.9053173828125001,9.8052099609375,-5.2734375,-0.296630859375,82.15576171875,0.0,0.0,0,0.0,0.0,0.0,0.0,0.0,0.0,0.0 
1714023302.105768,0.0,0.0,0.0,0.387796875,0.478484375,0.0,0.047900390625000004,-0.9053173828125001,9.8052099609375,-5.2734375,-0.296630859375,82.15576171875,0.0,0.0,0,0.0,0.0,0.0,0.0,0.0,0.0,0.0 
1714023302.173788,0.0,0.0,0.0,0.387796875,0.478484375,0.0,0.047900390625000004,-0.9053173828125001,9.8052099609375,-5.2734375,-0.296630859375,82.15576171875,0.0,0.0,0,0.0,0.0,0.0,0.0,0.0,0.0,0.0 
1714023302.2418182,0.0,0.0,0.0,0.387796875,0.478484375,0.0,0.047900390625000004,-0.910107421875,9.8052099609375,-5.2734375,-0.296630859375,82.15576171875,0.0,0.0,0,0.0,0.0,0.0,0.0,0.0,0.0,0.0 
1714023302.3098426,0.0,0.0,0.0,0.387796875,0.478484375,0.0,0.052690429687500005,-0.9005273437500001,9.8052099609375,-5.2734375,-0.296630859375,82.15576171875,0.0,0.0,0,0.0,0.0,0.0,0.0,0.0,0.0,0.0 
1714023302.3778667,0.0,0.0,0.0,0.387796875,0.478484375,0.0,0.047900390625000004,-0.9005273437500001,9.8052099609375,-5.2734375,-0.296630859375,82.15576171875,0.0,0.0,0,0.0,0.0,0.0,0.0,0.0,0.0,0.0 
1714023302.4458535,0.0,0.0,0.0,0.387796875,0.478484375,0.0,0.05748046875,-0.9005273437500001,9.800419921875001,-5.2734375,-0.296630859375,82.15576171875,0.0,0.0,0,0.0,0.0,0.0,0.0,0.0,0.0,0.0 
1714023302.5138779,0.0,0.0,0.0,0.387765625,0.478484375,1.5625e-05,0.047900390625000004,-0.9053173828125001,9.81,-5.2734375,-0.296630859375,82.15576171875,0.0,0.0,0,0.0,0.0,0.0,0.0,0.0,0.0,0.0 
1714023303.3280938,0.0,0.0,0.0,0.387765625,0.478484375,1.5625e-05,0.047900390625000004,-0.9005273437500001,9.79083984375,-5.2734375,-0.296630859375,82.15576171875,0.0,0.0,0,0.0,0.0,0.0,0.0,0.0,0.0,0.0 
1714023303.3961103,0.0,0.0,0.0,0.387765625,0.478484375,1.5625e-05,0.052690429687500005,-0.9005273437500001,9.8052099609375,-5.2734375,-0.296630859375,82.15576171875,0.0,0.0,0,0.0,0.0,0.0,0.0,0.0,0.0,0.0 
1714023303.4641361,0.0,0.0,0.0,0.387765625,0.478484375,1.5625e-05,0.047900390625000004,-0.9005273437500001,9.8052099609375,-5.2734375,-0.296630859375,82.15576171875,0.0,0.0,0,0.0,0.0,0.0,0.0,0.0,0.0,0.0 
1714023303.5321674,0.0,0.0,0.0,0.387765625,0.478484375,1.5625e-05,0.052690429687500005,-0.9005273437500001,9.81,-5.2734375,-0.296630859375,82.15576171875,0.0,0.0,0,0.0,0.0,0.0,0.0,0.0,0.0,0.0 
1714023303.6002083,0.0,0.0,0.0,0.387765625,0.478484375,1.5625e-05,0.047900390625000004,-0.9005273437500001,9.8052099609375,-5.2734375,-0.296630859375,82.15576171875,0.0,0.0,0,0.0,0.0,0.0,0.0,0.0,0.0,0.0 
1714023303.6682413,0.0,0.0,0.0,0.387765625,0.478484375,1.5625e-05,0.052690429687500005,-0.9053173828125001,9.800419921875001,-5.2734375,-0.296630859375,82.15576171875,0.0,0.0,0,0.0,0.0,0.0,0.0,0.0,0.0,0.0 
1714023303.7362707,0.0,0.0,0.0,0.387765625,0.478484375,1.5625e-05,0.047900390625000004,-0.9005273437500001,9.800419921875001,-5.2734375,-0.296630859375,82.15576171875,0.0,0.0,0,0.0,0.0,0.0,0.0,0.0,0.0,0.0 
1714023303.8043075,0.0,0.0,0.0,0.387765625,0.478484375,1.5625e-05,0.05748046875,-0.9005273437500001,9.8052099609375,-5.2734375,-0.296630859375,82.15576171875,0.0,0.0,0,0.0,0.0,0.0,0.0,0.0,0.0,0.0 
1714023303.872317,0.0,0.0,0.0,0.387765625,0.478484375,1.5625e-05,0.047900390625000004,-0.910107421875,9.81,-5.2734375,-0.296630859375,82.15576171875,0.0,0.0,0,0.0,0.0,0.0,0.0,0.0,0.0,0.0 
1714023303.9403572,0.0,0.0,0.0,0.38778125,0.478484375,1.5625e-05,0.052690429687500005,-0.9053173828125001,9.7956298828125,-5.2679443359375,-0.296630859375,82.15576171875,0.0,0.0,0,0.0,0.0,0.0,0.0,0.0,0.0,0.0 
1714023304.7545788,0.0,0.0,0.0,0.38778125,0.478484375,1.5625e-05,0.052690429687500005,-0.910107421875,9.8052099609375,-5.2734375,-0.296630859375,82.15576171875,0.0,0.0,0,0.0,0.0,0.0,0.0,0.0,0.0,0.0 
1714023304.822615,0.0,0.0,0.0,0.38778125,0.478484375,1.5625e-05,0.0431103515625,-0.9053173828125001,9.81,-5.2734375,-0.296630859375,82.15576171875,0.0,0.0,0,0.0,0.0,0.0,0.0,0.0,0.0,0.0 
1714023304.8906488,0.0,0.0,0.0,0.38778125,0.478484375,1.5625e-05,0.0431103515625,-0.9005273437500001,9.800419921875001,-5.2734375,-0.296630859375,82.15576171875,0.0,0.0,0,0.0,0.0,0.0,0.0,0.0,0.0,0.0 
1714023304.9586728,0.0,0.0,0.0,0.38778125,0.478484375,1.5625e-05,0.047900390625000004,-0.9053173828125001,9.8052099609375,-5.2734375,-0.296630859375,82.15576171875,0.0,0.0,0,0.0,0.0,0.0,0.0,0.0,0.0,0.0 
1714023305.0266948,0.0,0.0,0.0,0.38778125,0.478484375,1.5625e-05,0.052690429687500005,-0.910107421875,9.81,-5.2734375,-0.296630859375,82.15576171875,0.0,0.0,0,0.0,0.0,0.0,0.0,0.0,0.0,0.0 
1714023305.094711,0.0,0.0,0.0,0.38778125,0.478484375,1.5625e-05,0.052690429687500005,-0.8957373046875,9.81,-5.2679443359375,-0.296630859375,82.15576171875,0.0,0.0,0,0.0,0.0,0.0,0.0,0.0,0.0,0.0 
1714023305.1627512,0.0,0.0,0.0,0.38778125,0.478484375,1.5625e-05,0.047900390625000004,-0.9005273437500001,11.0314599609375,-5.2679443359375,-0.296630859375,82.15576171875,0.0,0.0,0,0.0,0.0,0.0,0.0,0.0,0.0,0.0 
1714023305.2307796,0.0,0.0,0.0,0.38778125,0.478484375,1.5625e-05,0.052690429687500005,-0.9148974609375,9.800419921875001,-5.2679443359375,-0.296630859375,82.15576171875,0.0,0.0,0,0.0,0.0,0.0,0.0,0.0,0.0,0.0 
1714023305.2988033,0.0,0.0,0.0,0.38778125,0.478484375,1.5625e-05,0.047900390625000004,-0.9005273437500001,9.8052099609375,-5.2734375,-0.296630859375,82.15576171875,0.0,0.0,0,0.0,0.0,0.0,0.0,0.0,0.0,0.0 
1714023305.3668356,0.0,0.0,0.0,0.38778125,0.478484375,0.0,0.052690429687500005,-0.9005273437500001,9.8052099609375,-5.2734375,-0.296630859375,82.15576171875,0.0,0.0,0,0.0,0.0,0.0,0.0,0.0,0.0,0.0 
1714023306.1810467,0.0,0.0,0.0,0.38778125,0.478484375,0.0,0.0431103515625,-0.9053173828125001,9.8052099609375,-5.2679443359375,-0.296630859375,82.15576171875,0.0,0.0,0,0.0,0.0,0.0,0.0,0.0,0.0,0.0 
1714023306.249079,0.0,0.0,0.0,0.38778125,0.478484375,0.0,0.047900390625000004,-0.9053173828125001,9.800419921875001,-5.2679443359375,-0.296630859375,82.15576171875,0.0,0.0,0,0.0,0.0,0.0,0.0,0.0,0.0,0.0 
1714023306.3171046,0.0,0.0,0.0,0.38778125,0.478484375,0.0,0.047900390625000004,-0.9005273437500001,9.81,-5.2679443359375,-0.296630859375,82.15576171875,0.0,0.0,0,0.0,0.0,0.0,0.0,0.0,0.0,0.0 
1714023306.3851259,0.0,0.0,0.0,0.38778125,0.478484375,0.0,0.0431103515625,-0.910107421875,9.8052099609375,-5.2679443359375,-0.296630859375,82.15576171875,0.0,0.0,0,0.0,0.0,0.0,0.0,0.0,0.0,0.0 
1714023306.4531484,0.0,0.0,0.0,0.38778125,0.478484375,0.0,0.0431103515625,-0.9053173828125001,9.81,-5.2679443359375,-0.296630859375,82.15576171875,0.0,0.0,0,0.0,0.0,0.0,0.0,0.0,0.0,0.0 
1714023306.521179,0.0,0.0,0.0,0.38778125,0.478484375,0.0,0.052690429687500005,-0.9053173828125001,9.81,-5.2734375,-0.296630859375,82.15576171875,0.0,0.0,0,0.0,0.0,0.0,0.0,0.0,0.0,0.0 
1714023306.5892088,0.0,0.0,0.0,0.38778125,0.478484375,0.0,0.052690429687500005,-0.8957373046875,9.8052099609375,-5.2734375,-0.296630859375,82.15576171875,0.0,0.0,0,0.0,0.0,0.0,0.0,0.0,0.0,0.0 
1714023306.6572363,0.0,0.0,0.0,0.38778125,0.478484375,0.0,0.047900390625000004,-0.910107421875,9.800419921875001,-5.2734375,-0.296630859375,82.15576171875,0.0,0.0,0,0.0,0.0,0.0,0.0,0.0,0.0,0.0 
1714023306.7252548,0.0,0.0,0.0,0.38778125,0.478484375,0.0,0.052690429687500005,-0.9005273437500001,9.800419921875001,-5.2734375,-0.296630859375,82.15576171875,0.0,0.0,0,0.0,0.0,0.0,0.0,0.0,0.0,0.0 
1714023306.79328,0.0,0.0,0.0,0.387796875,0.478484375,-1.5625e-05,0.052690429687500005,-0.8957373046875,9.800419921875001,-5.2734375,-0.296630859375,82.15576171875,0.0,0.0,0,0.0,0.0,0.0,0.0,0.0,0.0,0.0 
1714023307.607605,0.0,0.0,0.0,0.387796875,0.478484375,-1.5625e-05,0.0431103515625,-0.9005273437500001,9.8052099609375,-5.2734375,-0.296630859375,82.15576171875,0.0,0.0,0,0.0,0.0,0.0,0.0,0.0,0.0,0.0 
1714023307.6756248,0.0,0.0,0.0,0.387796875,0.478484375,-1.5625e-05,0.0431103515625,-0.9005273437500001,9.800419921875001,-5.2734375,-0.296630859375,82.15576171875,0.0,0.0,0,0.0,0.0,0.0,0.0,0.0,0.0,0.0 
1714023307.7436473,0.0,0.0,0.0,0.387796875,0.478484375,-1.5625e-05,0.052690429687500005,-0.9005273437500001,9.800419921875001,-5.2734375,-0.296630859375,82.15576171875,0.0,0.0,0,0.0,0.0,0.0,0.0,0.0,0.0,0.0 
1714023307.8116672,0.0,0.0,0.0,0.387796875,0.478484375,-1.5625e-05,0.0431103515625,-0.9053173828125001,9.8052099609375,-5.2734375,-0.296630859375,82.15576171875,0.0,0.0,0,0.0,0.0,0.0,0.0,0.0,0.0,0.0 
1714023307.8796973,0.0,0.0,0.0,0.387796875,0.478484375,-1.5625e-05,0.052690429687500005,-0.910107421875,9.800419921875001,-5.2734375,-0.296630859375,82.15576171875,0.0,0.0,0,0.0,0.0,0.0,0.0,0.0,0.0,0.0 
1714023307.947713,0.0,0.0,0.0,0.387796875,0.478484375,-1.5625e-05,0.047900390625000004,-0.8957373046875,9.8052099609375,-5.2734375,-0.296630859375,82.15576171875,0.0,0.0,0,0.0,0.0,0.0,0.0,0.0,0.0,0.0 
1714023308.015744,0.0,0.0,0.0,0.387796875,0.478484375,-1.5625e-05,0.047900390625000004,-0.9053173828125001,9.800419921875001,-5.2734375,-0.296630859375,82.15576171875,0.0,0.0,0,0.0,0.0,0.0,0.0,0.0,0.0,0.0 
1714023308.083789,0.0,0.0,0.0,0.387796875,0.478484375,-1.5625e-05,0.0431103515625,-0.9053173828125001,9.7956298828125,-5.2734375,-0.296630859375,82.15576171875,0.0,0.0,0,0.0,0.0,0.0,0.0,0.0,0.0,0.0 
1714023308.1518192,0.0,0.0,0.0,0.387796875,0.478484375,-1.5625e-05,0.047900390625000004,-0.9005273437500001,9.7956298828125,-5.2734375,-0.296630859375,82.15576171875,0.0,0.0,0,0.0,0.0,0.0,0.0,0.0,0.0,0.0 
1714023308.2198508,0.0,0.0,0.0,0.38778125,0.478484375,0.0,0.047900390625000004,-0.910107421875,9.8052099609375,-5.2734375,-0.2911376953125,82.15576171875,0.0,0.0,0,0.0,0.0,0.0,0.0,0.0,0.0,0.0 
1714023309.0342386,0.0,0.0,0.0,0.38778125,0.478484375,0.0,0.0431103515625,-0.8957373046875,9.8052099609375,-5.2734375,-0.2911376953125,82.15576171875,0.0,0.0,0,0.0,0.0,0.0,0.0,0.0,0.0,0.0 
1714023309.1022704,0.0,0.0,0.0,0.38778125,0.478484375,0.0,0.047900390625000004,-0.9053173828125001,9.81,-5.2734375,-0.2911376953125,82.15576171875,0.0,0.0,0,0.0,0.0,0.0,0.0,0.0,0.0,0.0 
1714023309.1702988,0.0,0.0,0.0,0.38778125,0.478484375,0.0,0.052690429687500005,-0.910107421875,9.8052099609375,-5.2734375,-0.2911376953125,82.15576171875,0.0,0.0,0,0.0,0.0,0.0,0.0,0.0,0.0,0.0 
1714023309.238328,0.0,0.0,0.0,0.38778125,0.478484375,0.0,0.0431103515625,-0.9005273437500001,9.800419921875001,-5.2734375,-0.2911376953125,82.15576171875,0.0,0.0,0,0.0,0.0,0.0,0.0,0.0,0.0,0.0 
1714023309.3063624,0.0,0.0,0.0,0.38778125,0.478484375,0.0,0.047900390625000004,-0.9005273437500001,9.800419921875001,-5.2734375,-0.2911376953125,82.15576171875,0.0,0.0,0,0.0,0.0,0.0,0.0,0.0,0.0,0.0 
1714023309.37439,0.0,0.0,0.0,0.38778125,0.478484375,0.0,0.052690429687500005,-0.9053173828125001,9.81,-5.2734375,-0.2911376953125,82.15576171875,0.0,0.0,0,0.0,0.0,0.0,0.0,0.0,0.0,0.0 
1714023309.442416,0.0,0.0,0.0,0.38778125,0.478484375,0.0,0.047900390625000004,-0.9053173828125001,9.800419921875001,-5.2734375,-0.2911376953125,82.15576171875,0.0,0.0,0,0.0,0.0,0.0,0.0,0.0,0.0,0.0 
1714023309.5104446,0.0,0.0,0.0,0.38778125,0.478484375,0.0,0.047900390625000004,-0.9053173828125001,9.8052099609375,-5.2734375,-0.2911376953125,82.15576171875,0.0,0.0,0,0.0,0.0,0.0,0.0,0.0,0.0,0.0 
1714023309.5784664,0.0,0.0,0.0,0.38778125,0.478484375,0.0,0.052690429687500005,-0.9005273437500001,9.8052099609375,-5.2734375,-0.2911376953125,82.15576171875,0.0,0.0,0,0.0,0.0,0.0,0.0,0.0,0.0,0.0 
1714023309.6464877,0.0,0.0,0.0,0.38775,0.47846875,3.125e-05,0.047900390625000004,-0.910107421875,9.814790039062501,-5.2734375,-0.2911376953125,82.15576171875,0.0,0.0,0,0.0,0.0,0.0,0.0,0.0,0.0,0.0 
1714023310.4607275,0.0,0.0,0.0,0.38775,0.47846875,3.125e-05,0.047900390625000004,-0.9053173828125001,9.800419921875001,-5.2734375,-0.2911376953125,82.15576171875,0.0,0.0,0,0.0,0.0,0.0,0.0,0.0,0.0,0.0 
1714023310.528747,0.0,0.0,0.0,0.38775,0.47846875,3.125e-05,0.047900390625000004,-0.9148974609375,9.81,-5.2734375,-0.2911376953125,82.15576171875,0.0,0.0,0,0.0,0.0,0.0,0.0,0.0,0.0,0.0 
1714023310.5967693,0.0,0.0,0.0,0.38775,0.47846875,3.125e-05,0.05748046875,-0.9053173828125001,9.81,-5.2734375,-0.2911376953125,82.15576171875,0.0,0.0,0,0.0,0.0,0.0,0.0,0.0,0.0,0.0 
1714023310.6647973,0.0,0.0,0.0,0.38775,0.47846875,3.125e-05,0.047900390625000004,-0.8957373046875,9.7956298828125,-5.2734375,-0.2911376953125,82.15576171875,0.0,0.0,0,0.0,0.0,0.0,0.0,0.0,0.0,0.0 
1714023310.7328215,0.0,0.0,0.0,0.38775,0.47846875,3.125e-05,0.047900390625000004,-0.9053173828125001,9.8052099609375,-5.2734375,-0.296630859375,82.15576171875,0.0,0.0,0,0.0,0.0,0.0,0.0,0.0,0.0,0.0 
1714023310.800849,0.0,0.0,0.0,0.38775,0.47846875,3.125e-05,0.052690429687500005,-0.910107421875,9.7956298828125,-5.2734375,-0.296630859375,82.15576171875,0.0,0.0,0,0.0,0.0,0.0,0.0,0.0,0.0,0.0 
1714023310.8688645,0.0,0.0,0.0,0.38775,0.47846875,3.125e-05,0.052690429687500005,-0.9053173828125001,9.8052099609375,-5.2734375,-0.296630859375,82.15576171875,0.0,0.0,0,0.0,0.0,0.0,0.0,0.0,0.0,0.0 
1714023310.936895,0.0,0.0,0.0,0.38775,0.47846875,3.125e-05,0.047900390625000004,-0.9005273437500001,9.8052099609375,-5.2734375,-0.296630859375,82.15576171875,0.0,0.0,0,0.0,0.0,0.0,0.0,0.0,0.0,0.0 
1714023311.0049279,0.0,0.0,0.0,0.38775,0.47846875,3.125e-05,0.05748046875,-0.9005273437500001,9.800419921875001,-5.2734375,-0.296630859375,82.15576171875,0.0,0.0,0,0.0,0.0,0.0,0.0,0.0,0.0,0.0 
1714023311.0729485,0.0,0.0,0.0,0.387765625,0.47846875,0.0,0.047900390625000004,-0.9053173828125001,9.800419921875001,-5.2734375,-0.296630859375,82.15576171875,0.0,0.0,0,0.0,0.0,0.0,0.0,0.0,0.0,0.0 
1714023311.8872607,0.0,0.0,0.0,0.387765625,0.47846875,0.0,0.047900390625000004,-0.9005273437500001,9.8052099609375,-5.2734375,-0.296630859375,82.15576171875,0.0,0.0,0,0.0,0.0,0.0,0.0,0.0,0.0,0.0 
1714023311.9552886,0.0,0.0,0.0,0.387765625,0.47846875,0.0,0.047900390625000004,-0.9005273437500001,9.800419921875001,-5.2734375,-0.296630859375,82.15576171875,0.0,0.0,0,0.0,0.0,0.0,0.0,0.0,0.0,0.0 
1714023312.0233226,0.0,0.0,0.0,0.387765625,0.47846875,0.0,0.0335302734375,-0.8957373046875,9.800419921875001,-5.2734375,-0.2911376953125,82.15576171875,0.0,0.0,0,0.0,0.0,0.0,0.0,0.0,0.0,0.0 
1714023312.0913506,0.0,0.0,0.0,0.387765625,0.47846875,0.0,0.047900390625000004,-0.910107421875,9.800419921875001,-5.2734375,-0.2911376953125,82.15576171875,0.0,0.0,0,0.0,0.0,0.0,0.0,0.0,0.0,0.0 
1714023312.1593757,0.0,0.0,0.0,0.387765625,0.47846875,0.0,0.047900390625000004,-0.9005273437500001,9.800419921875001,-5.2734375,-0.2911376953125,82.15576171875,0.0,0.0,0,0.0,0.0,0.0,0.0,0.0,0.0,0.0 
1714023312.2274094,0.0,0.0,0.0,0.387765625,0.47846875,0.0,0.052690429687500005,-0.9005273437500001,9.800419921875001,-5.2734375,-0.2911376953125,82.15576171875,0.0,0.0,0,0.0,0.0,0.0,0.0,0.0,0.0,0.0 
1714023312.2954404,0.0,0.0,0.0,0.387765625,0.47846875,0.0,0.047900390625000004,-0.9053173828125001,9.8052099609375,-5.2734375,-0.2911376953125,82.15576171875,0.0,0.0,0,0.0,0.0,0.0,0.0,0.0,0.0,0.0 
1714023312.3634658,0.0,0.0,0.0,0.387765625,0.47846875,0.0,0.047900390625000004,-0.9053173828125001,9.8052099609375,-5.2734375,-0.2911376953125,82.15576171875,0.0,0.0,0,0.0,0.0,0.0,0.0,0.0,0.0,0.0 
1714023312.4314919,0.0,0.0,0.0,0.387765625,0.47846875,0.0,0.052690429687500005,-0.8957373046875,9.800419921875001,-5.2734375,-0.2911376953125,82.15576171875,0.0,0.0,0,0.0,0.0,0.0,0.0,0.0,0.0,0.0 
1714023312.4995258,0.0,0.0,0.0,0.387765625,0.47846875,0.0,0.052690429687500005,-0.9053173828125001,9.800419921875001,-5.2734375,-0.296630859375,82.15576171875,0.0,0.0,0,0.0,0.0,0.0,0.0,0.0,0.0,0.0 
1714023313.3137946,0.0,0.0,0.0,0.387765625,0.47846875,0.0,0.047900390625000004,-0.9053173828125001,9.800419921875001,-5.2734375,-0.296630859375,82.15576171875,0.0,0.0,0,0.0,0.0,0.0,0.0,0.0,0.0,0.0 
1714023313.3818257,0.0,0.0,0.0,0.387765625,0.47846875,0.0,0.052690429687500005,-0.9053173828125001,9.8052099609375,-5.2734375,-0.296630859375,82.15576171875,0.0,0.0,0,0.0,0.0,0.0,0.0,0.0,0.0,0.0 
1714023313.449856,0.0,0.0,0.0,0.387765625,0.47846875,0.0,0.047900390625000004,-0.9053173828125001,9.81,-5.2734375,-0.296630859375,82.15576171875,0.0,0.0,0,0.0,0.0,0.0,0.0,0.0,0.0,0.0 
1714023313.5178995,0.0,0.0,0.0,0.387765625,0.47846875,0.0,0.052690429687500005,-0.9053173828125001,9.814790039062501,-5.2734375,-0.296630859375,82.15576171875,0.0,0.0,0,0.0,0.0,0.0,0.0,0.0,0.0,0.0 
1714023313.5859392,0.0,0.0,0.0,0.387765625,0.47846875,0.0,0.0383203125,-0.9005273437500001,9.7956298828125,-5.2734375,-0.296630859375,82.15576171875,0.0,0.0,0,0.0,0.0,0.0,0.0,0.0,0.0,0.0 
1714023313.6539607,0.0,0.0,0.0,0.387765625,0.47846875,0.0,0.047900390625000004,-0.8957373046875,9.8052099609375,-5.2734375,-0.296630859375,82.15576171875,0.0,0.0,0,0.0,0.0,0.0,0.0,0.0,0.0,0.0 
1714023313.7219942,0.0,0.0,0.0,0.387765625,0.47846875,0.0,0.0431103515625,-0.8957373046875,9.800419921875001,-5.2734375,-0.2911376953125,82.15576171875,0.0,0.0,0,0.0,0.0,0.0,0.0,0.0,0.0,0.0 
1714023313.7900314,0.0,0.0,0.0,0.387765625,0.47846875,0.0,0.047900390625000004,-0.8957373046875,9.7956298828125,-5.2734375,-0.2911376953125,82.15576171875,0.0,0.0,0,0.0,0.0,0.0,0.0,0.0,0.0,0.0 
1714023313.8580709,0.0,0.0,0.0,0.387765625,0.47846875,0.0,0.047900390625000004,-0.8957373046875,9.81,-5.2679443359375,-0.2911376953125,82.15576171875,0.0,0.0,0,0.0,0.0,0.0,0.0,0.0,0.0,0.0 
1714023313.926111,0.0,0.0,0.0,0.387765625,0.47846875,-1.5625e-05,0.047900390625000004,-0.9005273437500001,9.800419921875001,-5.2679443359375,-0.296630859375,82.15576171875,0.0,0.0,0,0.0,0.0,0.0,0.0,0.0,0.0,0.0 
1714023314.7404373,0.0,0.0,0.0,0.387765625,0.47846875,-1.5625e-05,0.05748046875,-0.910107421875,9.8052099609375,-5.2679443359375,-0.2911376953125,82.15576171875,0.0,0.0,0,0.0,0.0,0.0,0.0,0.0,0.0,0.0 
1714023314.8084612,0.0,0.0,0.0,0.387765625,0.47846875,-1.5625e-05,0.047900390625000004,-0.9005273437500001,9.800419921875001,-5.2734375,-0.2911376953125,82.15576171875,0.0,0.0,0,0.0,0.0,0.0,0.0,0.0,0.0,0.0 
1714023314.876478,0.0,0.0,0.0,0.387765625,0.47846875,-1.5625e-05,0.047900390625000004,-0.8957373046875,9.8052099609375,-5.2734375,-0.2911376953125,82.15576171875,0.0,0.0,0,0.0,0.0,0.0,0.0,0.0,0.0,0.0 
1714023314.9445128,0.0,0.0,0.0,0.387765625,0.47846875,-1.5625e-05,0.047900390625000004,-0.9053173828125001,9.8052099609375,-5.2734375,-0.2911376953125,82.15576171875,0.0,0.0,0,0.0,0.0,0.0,0.0,0.0,0.0,0.0 
1714023315.0125446,0.0,0.0,0.0,0.387765625,0.47846875,-1.5625e-05,0.0383203125,-0.910107421875,9.800419921875001,-5.2734375,-0.2911376953125,82.15576171875,0.0,0.0,0,0.0,0.0,0.0,0.0,0.0,0.0,0.0 
1714023315.080572,0.0,0.0,0.0,0.387765625,0.47846875,-1.5625e-05,0.0431103515625,-0.9005273437500001,9.800419921875001,-5.2734375,-0.2911376953125,82.15576171875,0.0,0.0,0,0.0,0.0,0.0,0.0,0.0,0.0,0.0 
1714023315.1485944,0.0,0.0,0.0,0.387765625,0.47846875,-1.5625e-05,0.047900390625000004,-0.8957373046875,9.8052099609375,-5.2734375,-0.2911376953125,82.15576171875,0.0,0.0,0,0.0,0.0,0.0,0.0,0.0,0.0,0.0 
1714023315.2166226,0.0,0.0,0.0,0.387765625,0.47846875,-1.5625e-05,0.0431103515625,-0.910107421875,9.81,-5.2734375,-0.2911376953125,82.15576171875,0.0,0.0,0,0.0,0.0,0.0,0.0,0.0,0.0,0.0 
1714023315.2846587,0.0,0.0,0.0,0.387765625,0.47846875,-1.5625e-05,0.047900390625000004,-0.8957373046875,9.800419921875001,-5.2734375,-0.2911376953125,82.15576171875,0.0,0.0,0,0.0,0.0,0.0,0.0,0.0,0.0,0.0 
1714023315.3526776,0.0,0.0,0.0,0.38775,0.47846875,0.0,0.05748046875,-0.9005273437500001,9.81,-5.2734375,-0.2911376953125,82.15576171875,0.0,0.0,0,0.0,0.0,0.0,0.0,0.0,0.0,0.0 
1714023316.166835,0.0,0.0,0.0,0.38775,0.47846875,0.0,0.0431103515625,-0.9005273437500001,9.800419921875001,-5.2734375,-0.2911376953125,82.15576171875,0.0,0.0,0,0.0,0.0,0.0,0.0,0.0,0.0,0.0 
1714023316.234854,0.0,0.0,0.0,0.38775,0.47846875,0.0,0.0431103515625,-0.9053173828125001,9.800419921875001,-5.2734375,-0.2911376953125,82.15576171875,0.0,0.0,0,0.0,0.0,0.0,0.0,0.0,0.0,0.0 
1714023316.3028684,0.0,0.0,0.0,0.38775,0.47846875,0.0,0.052690429687500005,-0.8957373046875,9.81,-5.2734375,-0.2911376953125,82.15576171875,0.0,0.0,0,0.0,0.0,0.0,0.0,0.0,0.0,0.0 
1714023316.3708997,0.0,0.0,0.0,0.38775,0.47846875,0.0,0.0431103515625,-0.910107421875,9.81,-5.2734375,-0.2911376953125,82.15576171875,0.0,0.0,0,0.0,0.0,0.0,0.0,0.0,0.0,0.0 
1714023316.4389274,0.0,0.0,0.0,0.38775,0.47846875,0.0,0.047900390625000004,-0.9053173828125001,9.8052099609375,-5.2734375,-0.2911376953125,82.15576171875,0.0,0.0,0,0.0,0.0,0.0,0.0,0.0,0.0,0.0 
1714023316.5069568,0.0,0.0,0.0,0.38775,0.47846875,0.0,0.052690429687500005,-0.8957373046875,9.8052099609375,-5.2734375,-0.2911376953125,82.15576171875,0.0,0.0,0,0.0,0.0,0.0,0.0,0.0,0.0,0.0 
1714023316.5749764,0.0,0.0,0.0,0.38775,0.47846875,0.0,0.052690429687500005,-0.9005273437500001,9.800419921875001,-5.2734375,-0.2911376953125,82.15576171875,0.0,0.0,0,0.0,0.0,0.0,0.0,0.0,0.0,0.0 
1714023316.6429963,0.0,0.0,0.0,0.38775,0.47846875,0.0,0.052690429687500005,-0.9053173828125001,9.800419921875001,-5.2734375,-0.2911376953125,82.15576171875,0.0,0.0,0,0.0,0.0,0.0,0.0,0.0,0.0,0.0 
1714023316.7110226,0.0,0.0,0.0,0.38775,0.47846875,0.0,0.052690429687500005,-0.9005273437500001,9.81,-5.2734375,-0.2911376953125,82.15576171875,0.0,0.0,0,0.0,0.0,0.0,0.0,0.0,0.0,0.0 
1714023316.7790353,0.0,0.0,0.0,0.38775,0.47846875,0.0,0.052690429687500005,-0.9005273437500001,9.8052099609375,-5.2679443359375,-0.2911376953125,82.15576171875,0.0,0.0,0,0.0,0.0,0.0,0.0,0.0,0.0,0.0 
1714023317.5933156,0.0,0.0,0.0,0.38775,0.47846875,0.0,0.052690429687500005,-0.9053173828125001,9.800419921875001,-5.2679443359375,-0.2911376953125,82.15576171875,0.0,0.0,0,0.0,0.0,0.0,0.0,0.0,0.0,0.0 
1714023317.661332,0.0,0.0,0.0,0.38775,0.47846875,0.0,0.0431103515625,-0.9005273437500001,9.8052099609375,-5.2679443359375,-0.2911376953125,82.15576171875,0.0,0.0,0,0.0,0.0,0.0,0.0,0.0,0.0,0.0 
1714023317.729361,0.0,0.0,0.0,0.38775,0.47846875,0.0,0.052690429687500005,-0.9005273437500001,9.8052099609375,-5.2679443359375,-0.2911376953125,82.15576171875,0.0,0.0,0,0.0,0.0,0.0,0.0,0.0,0.0,0.0 
1714023317.7973852,0.0,0.0,0.0,0.38775,0.47846875,0.0,0.047900390625000004,-0.9053173828125001,9.800419921875001,-5.2679443359375,-0.2911376953125,82.15576171875,0.0,0.0,0,0.0,0.0,0.0,0.0,0.0,0.0,0.0 
1714023317.8654191,0.0,0.0,0.0,0.38775,0.47846875,0.0,0.0431103515625,-0.9005273437500001,9.800419921875001,-5.2679443359375,-0.2911376953125,82.15576171875,0.0,0.0,0,0.0,0.0,0.0,0.0,0.0,0.0,0.0 
1714023317.933448,0.0,0.0,0.0,0.38775,0.47846875,0.0,0.047900390625000004,-0.9053173828125001,9.8052099609375,-5.2679443359375,-0.2911376953125,82.15576171875,0.0,0.0,0,0.0,0.0,0.0,0.0,0.0,0.0,0.0 
1714023318.001467,0.0,0.0,0.0,0.38775,0.47846875,0.0,0.047900390625000004,-0.9005273437500001,9.800419921875001,-5.2679443359375,-0.2911376953125,82.15576171875,0.0,0.0,0,0.0,0.0,0.0,0.0,0.0,0.0,0.0 
1714023318.0694914,0.0,0.0,0.0,0.38775,0.47846875,0.0,0.052690429687500005,-0.9148974609375,9.800419921875001,-5.2679443359375,-0.2911376953125,82.15576171875,0.0,0.0,0,0.0,0.0,0.0,0.0,0.0,0.0,0.0 
1714023318.1375344,0.0,0.0,0.0,0.38775,0.47846875,0.0,0.0431103515625,-0.9005273437500001,9.8052099609375,-5.2734375,-0.2911376953125,82.15576171875,0.0,0.0,0,0.0,0.0,0.0,0.0,0.0,0.0,0.0 
1714023318.2055576,0.0,0.0,0.0,0.38775,0.47846875,-1.5625e-05,0.047900390625000004,-0.9005273437500001,9.81,-5.2734375,-0.2911376953125,82.15576171875,0.0,0.0,0,0.0,0.0,0.0,0.0,0.0,0.0,0.0 
1714023319.019896,0.0,0.0,0.0,0.38775,0.47846875,-1.5625e-05,0.0431103515625,-0.910107421875,9.8052099609375,-5.2734375,-0.2911376953125,82.15576171875,0.0,0.0,0,0.0,0.0,0.0,0.0,0.0,0.0,0.0 
1714023319.0879555,0.0,0.0,0.0,0.38775,0.47846875,-1.5625e-05,0.047900390625000004,-0.9005273437500001,9.81,-5.2734375,-0.2911376953125,82.15576171875,0.0,0.0,0,0.0,0.0,0.0,0.0,0.0,0.0,0.0 
1714023319.1560156,0.0,0.0,0.0,0.38775,0.47846875,-1.5625e-05,0.052690429687500005,-0.9005273437500001,9.8052099609375,-5.2734375,-0.2911376953125,82.15576171875,0.0,0.0,0,0.0,0.0,0.0,0.0,0.0,0.0,0.0 
1714023319.2240705,0.0,0.0,0.0,0.38775,0.47846875,-1.5625e-05,0.052690429687500005,-0.9053173828125001,9.814790039062501,-5.2734375,-0.2911376953125,82.15576171875,0.0,0.0,0,0.0,0.0,0.0,0.0,0.0,0.0,0.0 
1714023319.2921655,0.0,0.0,0.0,0.38775,0.47846875,-1.5625e-05,0.052690429687500005,-0.9196875,9.7956298828125,-5.2734375,-0.2911376953125,82.15576171875,0.0,0.0,0,0.0,0.0,0.0,0.0,0.0,0.0,0.0 
1714023319.3602128,0.0,0.0,0.0,0.38775,0.47846875,-1.5625e-05,0.047900390625000004,-0.9053173828125001,9.7956298828125,-5.2734375,-0.2911376953125,82.15576171875,0.0,0.0,0,0.0,0.0,0.0,0.0,0.0,0.0,0.0 
1714023319.4282727,0.0,0.0,0.0,0.38775,0.47846875,-1.5625e-05,0.047900390625000004,-0.9005273437500001,9.7956298828125,-5.2734375,-0.2911376953125,82.15576171875,0.0,0.0,0,0.0,0.0,0.0,0.0,0.0,0.0,0.0 
1714023319.4963346,0.0,0.0,0.0,0.38775,0.47846875,-1.5625e-05,0.047900390625000004,-0.9005273437500001,9.8052099609375,-5.2734375,-0.2911376953125,82.15576171875,0.0,0.0,0,0.0,0.0,0.0,0.0,0.0,0.0,0.0 
1714023319.5644007,0.0,0.0,0.0,0.38775,0.47846875,-1.5625e-05,0.047900390625000004,-0.9005273437500001,9.8052099609375,-5.2734375,-0.2911376953125,82.15576171875,0.0,0.0,0,0.0,0.0,0.0,0.0,0.0,0.0,0.0 
1714023319.6324463,0.0,0.0,0.0,0.387765625,0.47845312500000003,0.0,0.0431103515625,-0.9005273437500001,9.8052099609375,-5.2734375,-0.2911376953125,82.15576171875,0.0,0.0,0,0.0,0.0,0.0,0.0,0.0,0.0,0.0 
1714023320.4466114,0.0,0.0,0.0,0.387765625,0.47845312500000003,0.0,0.047900390625000004,-0.910107421875,9.800419921875001,-5.2734375,-0.2911376953125,82.15576171875,0.0,0.0,0,0.0,0.0,0.0,0.0,0.0,0.0,0.0 
1714023320.514704,0.0,0.0,0.0,0.387765625,0.47845312500000003,0.0,0.047900390625000004,-0.9148974609375,9.800419921875001,-5.2789306640625,-0.2911376953125,82.15576171875,0.0,0.0,0,0.0,0.0,0.0,0.0,0.0,0.0,0.0 
1714023320.5827477,0.0,0.0,0.0,0.387765625,0.47845312500000003,0.0,0.0431103515625,-0.9005273437500001,9.81,-5.2789306640625,-0.2911376953125,82.15576171875,0.0,0.0,0,0.0,0.0,0.0,0.0,0.0,0.0,0.0 
1714023320.650801,0.0,0.0,0.0,0.387765625,0.47845312500000003,0.0,0.052690429687500005,-0.9005273437500001,9.81,-5.2789306640625,-0.2911376953125,82.15576171875,0.0,0.0,0,0.0,0.0,0.0,0.0,0.0,0.0,0.0 
1714023320.718829,0.0,0.0,0.0,0.387765625,0.47845312500000003,0.0,0.047900390625000004,-0.8957373046875,9.7956298828125,-5.2789306640625,-0.2911376953125,82.15576171875,0.0,0.0,0,0.0,0.0,0.0,0.0,0.0,0.0,0.0 
1714023320.7869072,0.0,0.0,0.0,0.387765625,0.47845312500000003,0.0,0.0431103515625,-0.910107421875,9.800419921875001,-5.2789306640625,-0.2911376953125,82.15576171875,0.0,0.0,0,0.0,0.0,0.0,0.0,0.0,0.0,0.0 
1714023320.85499,0.0,0.0,0.0,0.387765625,0.47845312500000003,0.0,0.0622705078125,-0.9005273437500001,9.8052099609375,-5.2789306640625,-0.2911376953125,82.15576171875,0.0,0.0,0,0.0,0.0,0.0,0.0,0.0,0.0,0.0 
1714023320.9230547,0.0,0.0,0.0,0.387765625,0.47845312500000003,0.0,0.052690429687500005,-0.9005273437500001,9.800419921875001,-5.2789306640625,-0.2911376953125,82.15576171875,0.0,0.0,0,0.0,0.0,0.0,0.0,0.0,0.0,0.0 
1714023320.9911492,0.0,0.0,0.0,0.387765625,0.47845312500000003,0.0,0.0431103515625,-0.9053173828125001,9.81,-5.2789306640625,-0.2911376953125,82.15576171875,0.0,0.0,0,0.0,0.0,0.0,0.0,0.0,0.0,0.0 
1714023321.059202,0.0,0.0,0.0,0.38775,0.47845312500000003,-1.5625e-05,0.0383203125,-0.9005273437500001,9.8052099609375,-5.2789306640625,-0.2911376953125,82.15576171875,0.0,0.0,0,0.0,0.0,0.0,0.0,0.0,0.0,0.0 
